[{"name": "Abu Dhabi", "country": "AE", "admin1": "Ab\u016b Z\u0327aby", "lat": 24.45118, "lon": 54.39696, "pop": 603492}, {"name": "Ajman City", "country": "AE", "admin1": "\u2018Ajm\u0101n", "lat": 25.40177, "lon": 55.47878, "pop": 490035}, {"name": "Al Ain City", "country": "AE", "admin1": "Ab\u016b Z\u0327aby", "lat": 24.19167, "lon": 55.76056, "pop": 55091}, {"name": "Al Fujairah City", "country": "AE", "admin1": "Al Fujayrah", "lat": 25.11641, "lon": 56.34141, "pop": 86512}, {"name": "Al Shamkhah City", "country": "AE", "admin1": "Ab\u016b Z\u0327aby", "lat": 24.39268, "lon": 54.70779, "pop": 61710}, {"name": "Bani Yas City", "country": "AE", "admin1": "Ab\u016b Z\u0327aby", "lat": 24.30978, "lon": 54.62944, "pop": 80498}, {"name": "Dubai", "country": "AE", "admin1": "Dubai", "lat": 25.07725, "lon": 55.30927, "pop": 2956587}, {"name": "Khalifah A City", "country": "AE", "admin1": "Ab\u016b Z\u0327aby", "lat": 24.42588, "lon": 54.605, "pop": 85374}, {"name": "Musaffah", "country": "AE", "admin1": "Ab\u016b Z\u0327aby", "lat": 24.35893, "lon": 54.48267, "pop": 243341}, {"name": "Ras Al Khaimah City", "country": "AE", "admin1": "Ra\u2019s al Khaymah", "lat": 25.78953, "lon": 55.9432, "pop": 351943}, {"name": "Reef Al Fujairah City", "country": "AE", "admin1": "Al Fujayrah", "lat": 25.14479, "lon": 56.24764, "pop": 82310}, {"name": "Sharjah", "country": "AE", "admin1": "Ash Sh\u0101riqah", "lat": 25.33737, "lon": 55.41206, "pop": 1324473}, {"name": "Umm Al Quwain City", "country": "AE", "admin1": "Umm al Qaywayn", "lat": 25.56473, "lon": 55.55517, "pop": 62747}, {"name": "Zayed City", "country": "AE", "admin1": "Ab\u016b Z\u0327aby", "lat": 23.65416, "lon": 53.70522, "pop": 63482}, {"name": "Baghl\u0101n", "country": "AF", "admin1": "Wil\u0101yat-e Baghl\u0101n", "lat": 36.13068, "lon": 68.70829, "pop": 108449}, {"name": "Balkh", "country": "AF", "admin1": "Balkh", "lat": 36.75635, "lon": 66.8972, "pop": 114883}, {"name": "B\u0101my\u0101n", "country": "AF", "admin1": "Wil\u0101yat-e B\u0101my\u0101n", "lat": 34.82156, "lon": 67.82734, "pop": 61863}, {"name": "B\u0101z\u0101rak", "country": "AF", "admin1": "Panjshir", "lat": 35.31292, "lon": 69.51519, "pop": 65000}, {"name": "Charikar", "country": "AF", "admin1": "Parw\u0101n", "lat": 35.01361, "lon": 69.17139, "pop": 53676}, {"name": "Gardez", "country": "AF", "admin1": "Wil\u0101yat-e Paktiy\u0101", "lat": 33.59744, "lon": 69.22592, "pop": 103601}, {"name": "Ghazni", "country": "AF", "admin1": "Wil\u0101yat-e Ghazn\u012b", "lat": 33.55391, "lon": 68.42096, "pop": 141000}, {"name": "Her\u0101t", "country": "AF", "admin1": "Her\u0101t", "lat": 34.34817, "lon": 62.19967, "pop": 272806}, {"name": "Jal\u0101l\u0101b\u0101d", "country": "AF", "admin1": "Nangarh\u0101r", "lat": 34.42647, "lon": 70.45153, "pop": 200331}, {"name": "Kabul", "country": "AF", "admin1": "Wil\u0101yat-e K\u0101bul", "lat": 34.52813, "lon": 69.17233, "pop": 3043532}, {"name": "Kandah\u0101r", "country": "AF", "admin1": "Kandah\u0101r", "lat": 31.61332, "lon": 65.71013, "pop": 391190}, {"name": "Khanabad", "country": "AF", "admin1": "Kunduz", "lat": 36.6825, "lon": 69.11556, "pop": 71531}, {"name": "Kh\u014dst", "country": "AF", "admin1": "Vel\u0101yat-e Khowst", "lat": 33.33951, "lon": 69.92041, "pop": 96123}, {"name": "Khulm", "country": "AF", "admin1": "Balkh", "lat": 36.69736, "lon": 67.69826, "pop": 64933}, {"name": "Kunduz", "country": "AF", "admin1": "Kunduz", "lat": 36.72895, "lon": 68.857, "pop": 161902}, {"name": "Maymana", "country": "AF", "admin1": "Faryab Province", "lat": 35.92139, "lon": 64.78361, "pop": 75900}, {"name": "Maz\u0101r-e Shar\u012bf", "country": "AF", "admin1": "Balkh", "lat": 36.70904, "lon": 67.11087, "pop": 303282}, {"name": "Pul-e Khumr\u012b", "country": "AF", "admin1": "Wil\u0101yat-e Baghl\u0101n", "lat": 35.94458, "lon": 68.71512, "pop": 56369}, {"name": "Sar-e Pul", "country": "AF", "admin1": "Sar-e Pul", "lat": 36.21544, "lon": 65.93249, "pop": 52121}, {"name": "Shibirgh\u0101n", "country": "AF", "admin1": "Wil\u0101yat-e Jowzj\u0101n", "lat": 36.66757, "lon": 65.7529, "pop": 55641}, {"name": "Taloqan", "country": "AF", "admin1": "Wil\u0101yat-e Takh\u0101r", "lat": 36.73605, "lon": 69.53451, "pop": 64256}, {"name": "Durr\u00ebs", "country": "AL", "admin1": "Qarku i Durr\u00ebsit", "lat": 41.32355, "lon": 19.45469, "pop": 122034}, {"name": "Elbasan", "country": "AL", "admin1": "Qarku i Elbasanit", "lat": 41.1125, "lon": 20.08222, "pop": 100903}, {"name": "Fier", "country": "AL", "admin1": "Qarku i Fierit", "lat": 40.72389, "lon": 19.55611, "pop": 56297}, {"name": "Kor\u00e7\u00eb", "country": "AL", "admin1": "Qarku i Kor\u00e7\u00ebs", "lat": 40.61861, "lon": 20.78083, "pop": 58259}, {"name": "Patos", "country": "AL", "admin1": "Qarku i Fierit", "lat": 40.68333, "lon": 19.61944, "pop": 60000}, {"name": "Pogradec", "country": "AL", "admin1": "Qarku i Kor\u00e7\u00ebs", "lat": 40.9025, "lon": 20.6525, "pop": 61530}, {"name": "Shkod\u00ebr", "country": "AL", "admin1": "Qarku i Shkodr\u00ebs", "lat": 42.06828, "lon": 19.51258, "pop": 88245}, {"name": "Tirana", "country": "AL", "admin1": "Qarku i Tiran\u00ebs", "lat": 41.3275, "lon": 19.81889, "pop": 374801}, {"name": "Vlor\u00eb", "country": "AL", "admin1": "Qarku i Vlor\u00ebs", "lat": 40.4686, "lon": 19.48318, "pop": 89546}, {"name": "Gyumri", "country": "AM", "admin1": "Shiraki Marz", "lat": 40.7942, "lon": 43.84528, "pop": 148381}, {"name": "Vanadzor", "country": "AM", "admin1": "Lorru Marz", "lat": 40.80456, "lon": 44.4939, "pop": 101098}, {"name": "Yerevan", "country": "AM", "admin1": "Yerevan", "lat": 40.18111, "lon": 44.51361, "pop": 1093485}, {"name": "Benguela", "country": "AO", "admin1": "Benguela", "lat": -12.57626, "lon": 13.40547, "pop": 151226}, {"name": "Cabinda", "country": "AO", "admin1": "Cabinda", "lat": -5.55, "lon": 12.2, "pop": 66020}, {"name": "Cuito", "country": "AO", "admin1": "Prov\u00edncia do Bi\u00e9", "lat": -12.38333, "lon": 16.93333, "pop": 113624}, {"name": "Huambo", "country": "AO", "admin1": "Huambo", "lat": -12.77611, "lon": 15.73917, "pop": 226145}, {"name": "Lobito", "country": "AO", "admin1": "Benguela", "lat": -12.3644, "lon": 13.53601, "pop": 207932}, {"name": "Luanda", "country": "AO", "admin1": "Luanda Province", "lat": -8.83682, "lon": 13.23432, "pop": 2776168}, {"name": "Lubango", "country": "AO", "admin1": "Huila Province", "lat": -14.91717, "lon": 13.4925, "pop": 102541}, {"name": "Malanje", "country": "AO", "admin1": "Malanje Province", "lat": -9.54015, "lon": 16.34096, "pop": 87046}, {"name": "N\u2019dalatando", "country": "AO", "admin1": "Cuanza Norte Province", "lat": -9.29782, "lon": 14.91162, "pop": 383100}, {"name": "Namibe", "country": "AO", "admin1": "Namibe Province", "lat": -15.19611, "lon": 12.15222, "pop": 80149}, {"name": "Soio", "country": "AO", "admin1": "Zaire", "lat": -6.1349, "lon": 12.36894, "pop": 67491}, {"name": "U\u00edge", "country": "AO", "admin1": "Prov\u00edncia do U\u00edge", "lat": -7.60874, "lon": 15.06131, "pop": 60008}, {"name": "Azul", "country": "AR", "admin1": "Buenos Aires", "lat": -36.77698, "lon": -59.85854, "pop": 53941}, {"name": "Bah\u00eda Blanca", "country": "AR", "admin1": "Buenos Aires", "lat": -38.71959, "lon": -62.27243, "pop": 276546}, {"name": "Barranqueras", "country": "AR", "admin1": "Chaco Province", "lat": -27.48132, "lon": -58.93925, "pop": 50823}, {"name": "Berazategui", "country": "AR", "admin1": "Buenos Aires", "lat": -34.76531, "lon": -58.21278, "pop": 167498}, {"name": "Buenos Aires", "country": "AR", "admin1": "Ciudad Aut\u00f3noma de Buenos Aires", "lat": -34.61315, "lon": -58.37723, "pop": 13076300}, {"name": "Campana", "country": "AR", "admin1": "Buenos Aires", "lat": -34.16327, "lon": -58.95919, "pop": 81612}, {"name": "Chimbas", "country": "AR", "admin1": "San Juan Province", "lat": -31.48333, "lon": -68.53333, "pop": 73829}, {"name": "Chivilcoy", "country": "AR", "admin1": "Buenos Aires", "lat": -34.89566, "lon": -60.01667, "pop": 54514}, {"name": "Cipolletti", "country": "AR", "admin1": "R\u00edo Negro Province", "lat": -38.93392, "lon": -67.99032, "pop": 75078}, {"name": "Comodoro Rivadavia", "country": "AR", "admin1": "Chubut Province", "lat": -45.86413, "lon": -67.49656, "pop": 140850}, {"name": "Concepci\u00f3n del Uruguay", "country": "AR", "admin1": "Entre R\u00edos Province", "lat": -32.48463, "lon": -58.23217, "pop": 67895}, {"name": "Concordia", "country": "AR", "admin1": "Entre R\u00edos Province", "lat": -31.39296, "lon": -58.02089, "pop": 145210}, {"name": "C\u00f3rdoba", "country": "AR", "admin1": "C\u00f3rdoba Province", "lat": -31.4135, "lon": -64.18105, "pop": 1428214}, {"name": "Corrientes", "country": "AR", "admin1": "Corrientes Province", "lat": -27.46784, "lon": -58.8344, "pop": 339067}, {"name": "Don Torcuato", "country": "AR", "admin1": "Buenos Aires", "lat": -34.49459, "lon": -58.62729, "pop": 64867}, {"name": "Formosa", "country": "AR", "admin1": "Formosa Province", "lat": -26.18489, "lon": -58.17313, "pop": 221383}, {"name": "General Pico", "country": "AR", "admin1": "La Pampa Province", "lat": -35.65662, "lon": -63.75682, "pop": 57029}, {"name": "General Roca", "country": "AR", "admin1": "R\u00edo Negro Province", "lat": -39.03333, "lon": -67.58333, "pop": 73212}, {"name": "Gobernador G\u00e1lvez", "country": "AR", "admin1": "Santa Fe Province", "lat": -33.03016, "lon": -60.64045, "pop": 74650}, {"name": "Goya", "country": "AR", "admin1": "Corrientes Province", "lat": -29.13995, "lon": -59.26343, "pop": 70245}, {"name": "Gualeguaych\u00fa", "country": "AR", "admin1": "Entre R\u00edos Province", "lat": -33.00937, "lon": -58.51722, "pop": 78676}, {"name": "Hurlingham", "country": "AR", "admin1": "Buenos Aires", "lat": -34.5904, "lon": -58.62904, "pop": 60000}, {"name": "Jos\u00e9 C. Paz", "country": "AR", "admin1": "Buenos Aires", "lat": -34.51541, "lon": -58.76813, "pop": 230208}, {"name": "Jun\u00edn", "country": "AR", "admin1": "Buenos Aires", "lat": -34.58382, "lon": -60.94332, "pop": 85007}, {"name": "La Plata", "country": "AR", "admin1": "Buenos Aires", "lat": -34.92145, "lon": -57.95453, "pop": 694167}, {"name": "La Rioja", "country": "AR", "admin1": "La Rioja Province", "lat": -29.41105, "lon": -66.85067, "pop": 162620}, {"name": "Los Polvorines", "country": "AR", "admin1": "Buenos Aires", "lat": -34.50316, "lon": -58.70596, "pop": 53354}, {"name": "Luj\u00e1n", "country": "AR", "admin1": "Buenos Aires", "lat": -34.57028, "lon": -59.105, "pop": 81749}, {"name": "Mar del Plata", "country": "AR", "admin1": "Buenos Aires", "lat": -38.00042, "lon": -57.5562, "pop": 553935}, {"name": "Mendoza", "country": "AR", "admin1": "Mendoza Province", "lat": -32.89084, "lon": -68.82717, "pop": 876884}, {"name": "Mercedes", "country": "AR", "admin1": "Buenos Aires", "lat": -34.65145, "lon": -59.43068, "pop": 52949}, {"name": "Merlo", "country": "AR", "admin1": "Buenos Aires", "lat": -34.66627, "lon": -58.72927, "pop": 244168}, {"name": "Mor\u00f3n", "country": "AR", "admin1": "Buenos Aires", "lat": -34.6509, "lon": -58.61956, "pop": 319934}, {"name": "Necochea", "country": "AR", "admin1": "Buenos Aires", "lat": -38.5545, "lon": -58.73961, "pop": 80478}, {"name": "Neuqu\u00e9n", "country": "AR", "admin1": "Neuqu\u00e9n Province", "lat": -38.95161, "lon": -68.0591, "pop": 242092}, {"name": "Ober\u00e1", "country": "AR", "admin1": "Misiones Province", "lat": -27.48706, "lon": -55.11994, "pop": 56528}, {"name": "Olavarr\u00eda", "country": "AR", "admin1": "Buenos Aires", "lat": -36.89272, "lon": -60.32254, "pop": 86320}, {"name": "Paran\u00e1", "country": "AR", "admin1": "Entre R\u00edos Province", "lat": -31.73271, "lon": -60.52897, "pop": 262295}, {"name": "Pergamino", "country": "AR", "admin1": "Buenos Aires", "lat": -33.88995, "lon": -60.57357, "pop": 87652}, {"name": "Pilar", "country": "AR", "admin1": "Buenos Aires", "lat": -34.45866, "lon": -58.9142, "pop": 226517}, {"name": "Posadas", "country": "AR", "admin1": "Misiones Province", "lat": -27.36708, "lon": -55.89608, "pop": 323739}, {"name": "Presidencia Roque S\u00e1enz Pe\u00f1a", "country": "AR", "admin1": "Chaco Province", "lat": -26.78522, "lon": -60.43876, "pop": 81879}, {"name": "Puerto Eldorado", "country": "AR", "admin1": "Misiones Province", "lat": -26.40843, "lon": -54.69463, "pop": 54189}, {"name": "Puerto Madryn", "country": "AR", "admin1": "Chubut Province", "lat": -42.7692, "lon": -65.03851, "pop": 64555}, {"name": "Punta Alta", "country": "AR", "admin1": "Buenos Aires", "lat": -38.87588, "lon": -62.07359, "pop": 57209}, {"name": "Quilmes", "country": "AR", "admin1": "Buenos Aires", "lat": -34.72904, "lon": -58.26374, "pop": 230000}, {"name": "Rafaela", "country": "AR", "admin1": "Santa Fe Province", "lat": -31.25033, "lon": -61.4867, "pop": 88713}, {"name": "Reconquista", "country": "AR", "admin1": "Santa Fe Province", "lat": -29.15, "lon": -59.65, "pop": 90184}, {"name": "Resistencia", "country": "AR", "admin1": "Chaco Province", "lat": -27.46056, "lon": -58.98389, "pop": 387158}, {"name": "R\u00edo Cuarto", "country": "AR", "admin1": "C\u00f3rdoba Province", "lat": -33.13067, "lon": -64.34992, "pop": 153757}, {"name": "R\u00edo Gallegos", "country": "AR", "admin1": "Santa Cruz Province", "lat": -51.62261, "lon": -69.21813, "pop": 85700}, {"name": "R\u00edo Grande", "country": "AR", "admin1": "Tierra del Fuego Province", "lat": -53.78769, "lon": -67.70946, "pop": 52681}, {"name": "R\u00edo Tercero", "country": "AR", "admin1": "C\u00f3rdoba Province", "lat": -32.17301, "lon": -64.11405, "pop": 53389}, {"name": "Rosario", "country": "AR", "admin1": "Santa Fe Province", "lat": -32.94682, "lon": -60.63932, "pop": 1173533}, {"name": "Salta", "country": "AR", "admin1": "Salta Province", "lat": -24.7859, "lon": -65.41166, "pop": 512686}, {"name": "San Carlos de Bariloche", "country": "AR", "admin1": "R\u00edo Negro Province", "lat": -41.14557, "lon": -71.30822, "pop": 95394}, {"name": "San Fernando del Valle de Catamarca", "country": "AR", "admin1": "Catamarca Province", "lat": -28.46957, "lon": -65.78524, "pop": 188812}, {"name": "San Francisco", "country": "AR", "admin1": "C\u00f3rdoba Province", "lat": -31.42797, "lon": -62.08266, "pop": 59062}, {"name": "San Juan", "country": "AR", "admin1": "San Juan Province", "lat": -31.5375, "lon": -68.53639, "pop": 447048}, {"name": "San Luis", "country": "AR", "admin1": "San Luis Province", "lat": -33.29501, "lon": -66.33563, "pop": 183982}, {"name": "San Mart\u00edn", "country": "AR", "admin1": "Mendoza Province", "lat": -33.08103, "lon": -68.46814, "pop": 82549}, {"name": "San Miguel", "country": "AR", "admin1": "Buenos Aires", "lat": -34.54335, "lon": -58.71229, "pop": 157532}, {"name": "San Miguel de Tucum\u00e1n", "country": "AR", "admin1": "Tucum\u00e1n Province", "lat": -26.82414, "lon": -65.2226, "pop": 781023}, {"name": "San Nicol\u00e1s de los Arroyos", "country": "AR", "admin1": "Buenos Aires", "lat": -33.33425, "lon": -60.2108, "pop": 127742}, {"name": "San Pedro de Jujuy", "country": "AR", "admin1": "Jujuy Province", "lat": -24.23127, "lon": -64.86614, "pop": 58430}, {"name": "San Rafael", "country": "AR", "admin1": "Mendoza Province", "lat": -34.61772, "lon": -68.33007, "pop": 109163}, {"name": "San Ram\u00f3n de la Nueva Or\u00e1n", "country": "AR", "admin1": "Salta Province", "lat": -23.13705, "lon": -64.32426, "pop": 74059}, {"name": "San Salvador de Jujuy", "country": "AR", "admin1": "Jujuy Province", "lat": -24.19457, "lon": -65.29712, "pop": 305891}, {"name": "Santa Fe", "country": "AR", "admin1": "Santa Fe Province", "lat": -31.64881, "lon": -60.70868, "pop": 489505}, {"name": "Santa Rosa", "country": "AR", "admin1": "La Pampa Province", "lat": -36.61667, "lon": -64.28333, "pop": 111424}, {"name": "Santiago del Estero", "country": "AR", "admin1": "Santiago del Estero Province", "lat": -27.79511, "lon": -64.26149, "pop": 354692}, {"name": "Santo Tom\u00e9", "country": "AR", "admin1": "Santa Fe Province", "lat": -31.66274, "lon": -60.7653, "pop": 59072}, {"name": "Tandil", "country": "AR", "admin1": "Buenos Aires", "lat": -37.32167, "lon": -59.13316, "pop": 104325}, {"name": "Tartagal", "country": "AR", "admin1": "Salta Province", "lat": -22.51637, "lon": -63.80131, "pop": 60819}, {"name": "Trelew", "country": "AR", "admin1": "Chubut Province", "lat": -43.24895, "lon": -65.30505, "pop": 93442}, {"name": "Ushuaia", "country": "AR", "admin1": "Tierra del Fuego Province", "lat": -54.81084, "lon": -68.31591, "pop": 58028}, {"name": "Venado Tuerto", "country": "AR", "admin1": "Santa Fe Province", "lat": -33.74556, "lon": -61.96885, "pop": 72340}, {"name": "Villa Carlos Paz", "country": "AR", "admin1": "C\u00f3rdoba Province", "lat": -31.42414, "lon": -64.49778, "pop": 69451}, {"name": "Villa Mar\u00eda", "country": "AR", "admin1": "C\u00f3rdoba Province", "lat": -32.40751, "lon": -63.24016, "pop": 92453}, {"name": "Villa Mercedes", "country": "AR", "admin1": "San Luis Province", "lat": -33.67571, "lon": -65.45783, "pop": 96781}, {"name": "Yerba Buena", "country": "AR", "admin1": "Tucum\u00e1n Province", "lat": -26.81667, "lon": -65.31667, "pop": 50783}, {"name": "Z\u00e1rate", "country": "AR", "admin1": "Buenos Aires", "lat": -34.09814, "lon": -59.02858, "pop": 88781}, {"name": "Graz", "country": "AT", "admin1": "Steiermark", "lat": 47.06667, "lon": 15.45, "pop": 222326}, {"name": "Innsbruck", "country": "AT", "admin1": "Tirol", "lat": 47.26266, "lon": 11.39454, "pop": 132493}, {"name": "Klagenfurt am W\u00f6rthersee", "country": "AT", "admin1": "K\u00e4rnten", "lat": 46.62472, "lon": 14.30528, "pop": 90610}, {"name": "Linz", "country": "AT", "admin1": "Ober\u00f6sterreich", "lat": 48.30639, "lon": 14.28611, "pop": 204846}, {"name": "Salzburg", "country": "AT", "admin1": "Salzburg", "lat": 47.79941, "lon": 13.04399, "pop": 153377}, {"name": "Vienna", "country": "AT", "admin1": "Wien", "lat": 48.20849, "lon": 16.37208, "pop": 1691468}, {"name": "Villach", "country": "AT", "admin1": "K\u00e4rnten", "lat": 46.61028, "lon": 13.85583, "pop": 58882}, {"name": "Adelaide", "country": "AU", "admin1": "State of South Australia", "lat": -34.92866, "lon": 138.59863, "pop": 1225235}, {"name": "Adelaide Hills", "country": "AU", "admin1": "State of South Australia", "lat": -34.91119, "lon": 138.70735, "pop": 60394}, {"name": "Ballarat", "country": "AU", "admin1": "State of Victoria", "lat": -37.56622, "lon": 143.84957, "pop": 97937}, {"name": "Bendigo", "country": "AU", "admin1": "State of Victoria", "lat": -36.75818, "lon": 144.28024, "pop": 100617}, {"name": "Brisbane", "country": "AU", "admin1": "State of Queensland", "lat": -27.46794, "lon": 153.02809, "pop": 2189878}, {"name": "Bunbury", "country": "AU", "admin1": "State of Western Australia", "lat": -33.32711, "lon": 115.64137, "pop": 68248}, {"name": "Bundaberg", "country": "AU", "admin1": "State of Queensland", "lat": -24.86621, "lon": 152.3479, "pop": 70826}, {"name": "Cairns", "country": "AU", "admin1": "State of Queensland", "lat": -16.92366, "lon": 145.76613, "pop": 153075}, {"name": "Canberra", "country": "AU", "admin1": "Australian Capital Territory", "lat": -35.28346, "lon": 149.12807, "pop": 367752}, {"name": "Darwin", "country": "AU", "admin1": "Northern Territory", "lat": -12.46113, "lon": 130.84185, "pop": 129062}, {"name": "Geelong", "country": "AU", "admin1": "State of Victoria", "lat": -38.14711, "lon": 144.36069, "pop": 226034}, {"name": "Gold Coast", "country": "AU", "admin1": "State of Queensland", "lat": -28.00029, "lon": 153.43088, "pop": 591473}, {"name": "Hervey Bay", "country": "AU", "admin1": "State of Queensland", "lat": -25.28762, "lon": 152.76936, "pop": 52230}, {"name": "Hobart", "country": "AU", "admin1": "State of Tasmania", "lat": -42.87936, "lon": 147.32941, "pop": 216656}, {"name": "Launceston", "country": "AU", "admin1": "State of Tasmania", "lat": -41.43876, "lon": 147.13467, "pop": 106153}, {"name": "Logan City", "country": "AU", "admin1": "State of Queensland", "lat": -27.63917, "lon": 153.10944, "pop": 282673}, {"name": "Mackay", "country": "AU", "admin1": "State of Queensland", "lat": -21.15345, "lon": 149.16554, "pop": 74219}, {"name": "Maitland", "country": "AU", "admin1": "State of New South Wales", "lat": -32.73308, "lon": 151.5574, "pop": 67132}, {"name": "Mandurah", "country": "AU", "admin1": "State of Western Australia", "lat": -32.5269, "lon": 115.7217, "pop": 83294}, {"name": "Melbourne", "country": "AU", "admin1": "State of Victoria", "lat": -37.814, "lon": 144.96332, "pop": 4246375}, {"name": "Newcastle", "country": "AU", "admin1": "State of New South Wales", "lat": -32.92953, "lon": 151.7801, "pop": 308308}, {"name": "Perth", "country": "AU", "admin1": "State of Western Australia", "lat": -31.95224, "lon": 115.8614, "pop": 1896548}, {"name": "Rockhampton", "country": "AU", "admin1": "State of Queensland", "lat": -23.38032, "lon": 150.50595, "pop": 61724}, {"name": "Rockingham", "country": "AU", "admin1": "State of Western Australia", "lat": -32.27682, "lon": 115.72978, "pop": 108022}, {"name": "Sydney", "country": "AU", "admin1": "State of New South Wales", "lat": -33.86785, "lon": 151.20732, "pop": 4627345}, {"name": "Toowoomba", "country": "AU", "admin1": "State of Queensland", "lat": -27.56056, "lon": 151.95386, "pop": 131258}, {"name": "Townsville", "country": "AU", "admin1": "State of Queensland", "lat": -19.26639, "lon": 146.80569, "pop": 196219}, {"name": "Wollongong", "country": "AU", "admin1": "State of New South Wales", "lat": -34.424, "lon": 150.89345, "pop": 292190}, {"name": "Bak\u0131xanov", "country": "AZ", "admin1": "Baku City", "lat": 40.41894, "lon": 49.96693, "pop": 66686}, {"name": "Baku", "country": "AZ", "admin1": "Baku City", "lat": 40.37767, "lon": 49.89201, "pop": 1116513}, {"name": "Ganja", "country": "AZ", "admin1": "Ganja City", "lat": 40.68278, "lon": 46.36056, "pop": 313300}, {"name": "Lankaran", "country": "AZ", "admin1": "Lankaran Rayon", "lat": 38.75428, "lon": 48.85062, "pop": 240300}, {"name": "Mingelchaur", "country": "AZ", "admin1": "Mingacevir City", "lat": 40.76395, "lon": 47.05953, "pop": 95453}, {"name": "Nakhchivan", "country": "AZ", "admin1": "Nakhchivan Autonomous Republic", "lat": 39.20889, "lon": 45.41222, "pop": 64754}, {"name": "Qara\u00e7uxur", "country": "AZ", "admin1": "Baku City", "lat": 40.39667, "lon": 49.97361, "pop": 72989}, {"name": "Saatl\u0131", "country": "AZ", "admin1": "Saatly Rayon", "lat": 39.93214, "lon": 48.36892, "pop": 87000}, {"name": "Sheki", "country": "AZ", "admin1": "Shaki city", "lat": 41.19194, "lon": 47.17056, "pop": 63000}, {"name": "\u015eirvan", "country": "AZ", "admin1": "Shirvan", "lat": 39.93778, "lon": 48.929, "pop": 70220}, {"name": "Sumqay\u0131t", "country": "AZ", "admin1": "Sumqayit City", "lat": 40.58972, "lon": 49.66861, "pop": 265150}, {"name": "Xankandi", "country": "AZ", "admin1": "Xankandi Sahari", "lat": 39.8177, "lon": 46.7528, "pop": 53100}, {"name": "Yevlakh", "country": "AZ", "admin1": "Yevlakh City", "lat": 40.61832, "lon": 47.15014, "pop": 127400}, {"name": "Banja Luka", "country": "BA", "admin1": "Republika Srpska", "lat": 44.77842, "lon": 17.19386, "pop": 221106}, {"name": "Biha\u0107", "country": "BA", "admin1": "Federation of Bosnia and Herzegovina", "lat": 44.81694, "lon": 15.87083, "pop": 75641}, {"name": "Mostar", "country": "BA", "admin1": "Federation of Bosnia and Herzegovina", "lat": 43.34333, "lon": 17.80806, "pop": 104518}, {"name": "Sarajevo", "country": "BA", "admin1": "Federation of Bosnia and Herzegovina", "lat": 43.84864, "lon": 18.35644, "pop": 696731}, {"name": "Tuzla", "country": "BA", "admin1": "Federation of Bosnia and Herzegovina", "lat": 44.53842, "lon": 18.66709, "pop": 142486}, {"name": "Zenica", "country": "BA", "admin1": "Federation of Bosnia and Herzegovina", "lat": 44.20169, "lon": 17.90397, "pop": 164423}, {"name": "Bridgetown", "country": "BB", "admin1": "Saint Michael", "lat": 13.10732, "lon": -59.62021, "pop": 98511}, {"name": "Azimpur", "country": "BD", "admin1": "Dhaka Division", "lat": 23.7298, "lon": 90.3854, "pop": 96641}, {"name": "Bagerhat", "country": "BD", "admin1": "Khulna Division", "lat": 22.65657, "lon": 89.79123, "pop": 266388}, {"name": "Baris\u0101l", "country": "BD", "admin1": "Barisal Division", "lat": 22.70497, "lon": 90.37013, "pop": 202242}, {"name": "Bhairab B\u0101z\u0101r", "country": "BD", "admin1": "Dhaka Division", "lat": 24.0524, "lon": 90.9764, "pop": 105457}, {"name": "Bhola", "country": "BD", "admin1": "Barisal Division", "lat": 22.68759, "lon": 90.64403, "pop": 99079}, {"name": "Bibir Hat", "country": "BD", "admin1": "Chittagong", "lat": 22.68347, "lon": 91.79058, "pop": 89030}, {"name": "Bogra", "country": "BD", "admin1": "R\u0101jsh\u0101hi Division", "lat": 24.85098, "lon": 89.37108, "pop": 210000}, {"name": "Chittagong", "country": "BD", "admin1": "Chittagong", "lat": 22.3384, "lon": 91.83168, "pop": 3920222}, {"name": "Comilla", "country": "BD", "admin1": "Chittagong", "lat": 23.46186, "lon": 91.18503, "pop": 389411}, {"name": "Cox\u2019s B\u0101z\u0101r", "country": "BD", "admin1": "Chittagong", "lat": 21.43973, "lon": 92.00955, "pop": 253788}, {"name": "Dhaka", "country": "BD", "admin1": "Dhaka Division", "lat": 23.7104, "lon": 90.40744, "pop": 10356500}, {"name": "Din\u0101jpur", "country": "BD", "admin1": "Rangpur Division", "lat": 25.62745, "lon": 88.63779, "pop": 206234}, {"name": "Far\u012bdpur", "country": "BD", "admin1": "Dhaka Division", "lat": 23.60612, "lon": 89.84064, "pop": 112187}, {"name": "Feni", "country": "BD", "admin1": "Chittagong", "lat": 23.0144, "lon": 91.3966, "pop": 84028}, {"name": "Habiganj", "country": "BD", "admin1": "Sylhet Division", "lat": 24.38044, "lon": 91.41299, "pop": 88760}, {"name": "Ishurdi", "country": "BD", "admin1": "R\u0101jsh\u0101hi Division", "lat": 24.12858, "lon": 89.06573, "pop": 81995}, {"name": "Jam\u0101lpur", "country": "BD", "admin1": "Mymensingh Division", "lat": 24.91965, "lon": 89.94812, "pop": 167900}, {"name": "Jessore", "country": "BD", "admin1": "Khulna Division", "lat": 23.16971, "lon": 89.21371, "pop": 243987}, {"name": "Joypur H\u0101t", "country": "BD", "admin1": "R\u0101jsh\u0101hi Division", "lat": 25.10147, "lon": 89.02734, "pop": 73068}, {"name": "Khagrachhari", "country": "BD", "admin1": "Chittagong", "lat": 23.10787, "lon": 91.97007, "pop": 50364}, {"name": "Khulna", "country": "BD", "admin1": "Khulna Division", "lat": 22.80979, "lon": 89.56439, "pop": 1342339}, {"name": "Kishorganj", "country": "BD", "admin1": "Dhaka Division", "lat": 24.43944, "lon": 90.78291, "pop": 90690}, {"name": "Kushtia", "country": "BD", "admin1": "Khulna Division", "lat": 23.9028, "lon": 89.11943, "pop": 135724}, {"name": "L\u0101ksh\u0101m", "country": "BD", "admin1": "Chittagong", "lat": 23.24018, "lon": 91.12143, "pop": 82290}, {"name": "Lakshm\u012bpur", "country": "BD", "admin1": "Chittagong", "lat": 22.9443, "lon": 90.83005, "pop": 61703}, {"name": "Lalmonirhat", "country": "BD", "admin1": "Rangpur Division", "lat": 25.91719, "lon": 89.44595, "pop": 65127}, {"name": "M\u0101d\u0101r\u012bpur", "country": "BD", "admin1": "Dhaka Division", "lat": 23.17097, "lon": 90.20935, "pop": 84789}, {"name": "Maulavi B\u0101z\u0101r", "country": "BD", "admin1": "Sylhet Division", "lat": 24.48888, "lon": 91.77075, "pop": 57441}, {"name": "Mymensingh", "country": "BD", "admin1": "Mymensingh Division", "lat": 24.75636, "lon": 90.40646, "pop": 225126}, {"name": "N\u0101garpur", "country": "BD", "admin1": "Dhaka Division", "lat": 24.05783, "lon": 89.87696, "pop": 238422}, {"name": "Narail", "country": "BD", "admin1": "Khulna Division", "lat": 23.15509, "lon": 89.49515, "pop": 55112}, {"name": "N\u0101r\u0101yanganj", "country": "BD", "admin1": "Dhaka Division", "lat": 23.61352, "lon": 90.50298, "pop": 223622}, {"name": "Narsingdi", "country": "BD", "admin1": "Dhaka Division", "lat": 23.92298, "lon": 90.71768, "pop": 281080}, {"name": "Natore", "country": "BD", "admin1": "R\u0101jsh\u0101hi Division", "lat": 24.41112, "lon": 88.98673, "pop": 369138}, {"name": "Naw\u0101bganj", "country": "BD", "admin1": "R\u0101jsh\u0101hi Division", "lat": 24.59025, "lon": 88.27444, "pop": 142361}, {"name": "Netrakona", "country": "BD", "admin1": "Mymensingh Division", "lat": 24.88352, "lon": 90.72898, "pop": 79016}, {"name": "P\u0101bna", "country": "BD", "admin1": "R\u0101jsh\u0101hi Division", "lat": 24.00644, "lon": 89.2372, "pop": 186781}, {"name": "P\u0101lang", "country": "BD", "admin1": "Dhaka Division", "lat": 23.21824, "lon": 90.35076, "pop": 67652}, {"name": "Paltan", "country": "BD", "admin1": "Dhaka Division", "lat": 23.73625, "lon": 90.41426, "pop": 184492}, {"name": "P\u0101r Naogaon", "country": "BD", "admin1": "R\u0101jsh\u0101hi Division", "lat": 24.80418, "lon": 88.94875, "pop": 192464}, {"name": "Patiya", "country": "BD", "admin1": "Chittagong", "lat": 22.29543, "lon": 91.979, "pop": 51360}, {"name": "Pirojpur", "country": "BD", "admin1": "Barisal Division", "lat": 22.57965, "lon": 89.97521, "pop": 54418}, {"name": "Puthia", "country": "BD", "admin1": "R\u0101jsh\u0101hi Division", "lat": 24.36537, "lon": 88.83431, "pop": 159406}, {"name": "R\u0101ipur", "country": "BD", "admin1": "Chittagong", "lat": 23.0391, "lon": 90.76808, "pop": 64652}, {"name": "R\u0101jsh\u0101hi", "country": "BD", "admin1": "R\u0101jsh\u0101hi Division", "lat": 24.374, "lon": 88.60114, "pop": 700133}, {"name": "R\u0101mganj", "country": "BD", "admin1": "Chittagong", "lat": 23.1006, "lon": 90.84989, "pop": 55241}, {"name": "Rangpur", "country": "BD", "admin1": "Rangpur Division", "lat": 25.74664, "lon": 89.25166, "pop": 343122}, {"name": "Saidpur", "country": "BD", "admin1": "R\u0101jsh\u0101hi Division", "lat": 25.77769, "lon": 88.89169, "pop": 199422}, {"name": "Sandw\u012bp", "country": "BD", "admin1": "Chittagong", "lat": 22.51409, "lon": 91.45491, "pop": 52152}, {"name": "Sarish\u0101b\u0101ri", "country": "BD", "admin1": "Mymensingh Division", "lat": 24.75127, "lon": 89.83126, "pop": 81325}, {"name": "S\u0101tkania", "country": "BD", "admin1": "Chittagong", "lat": 22.07639, "lon": 92.04955, "pop": 52005}, {"name": "S\u0101tkhira", "country": "BD", "admin1": "Khulna Division", "lat": 22.70817, "lon": 89.07185, "pop": 128918}, {"name": "Sh\u0101hz\u0101dpur", "country": "BD", "admin1": "R\u0101jsh\u0101hi Division", "lat": 24.17687, "lon": 89.5988, "pop": 102420}, {"name": "Sherpur", "country": "BD", "admin1": "Mymensingh Division", "lat": 25.01881, "lon": 90.01751, "pop": 107419}, {"name": "Shibganj", "country": "BD", "admin1": "R\u0101jsh\u0101hi Division", "lat": 25.00146, "lon": 89.32266, "pop": 378701}, {"name": "Sirajganj", "country": "BD", "admin1": "R\u0101jsh\u0101hi Division", "lat": 24.45771, "lon": 89.70802, "pop": 127481}, {"name": "Son\u0101rgaon", "country": "BD", "admin1": "Dhaka Division", "lat": 23.65, "lon": 90.61667, "pop": 130000}, {"name": "Sylhet", "country": "BD", "admin1": "Sylhet Division", "lat": 24.89904, "lon": 91.87198, "pop": 237000}, {"name": "T\u0101ng\u0101il", "country": "BD", "admin1": "Dhaka Division", "lat": 24.24984, "lon": 89.91655, "pop": 180144}, {"name": "Th\u0101kurgaon", "country": "BD", "admin1": "Rangpur Division", "lat": 26.03097, "lon": 88.46989, "pop": 71096}, {"name": "Tungi", "country": "BD", "admin1": "Dhaka Division", "lat": 23.89154, "lon": 90.40232, "pop": 337579}, {"name": "Tungip\u0101ra", "country": "BD", "admin1": "Dhaka Division", "lat": 22.89983, "lon": 89.90326, "pop": 62210}, {"name": "Aalst", "country": "BE", "admin1": "Flanders", "lat": 50.93604, "lon": 4.0355, "pop": 77534}, {"name": "Antwerpen", "country": "BE", "admin1": "Flanders", "lat": 51.21989, "lon": 4.40346, "pop": 459805}, {"name": "Brugge", "country": "BE", "admin1": "Flanders", "lat": 51.20892, "lon": 3.22424, "pop": 116709}, {"name": "Brussels", "country": "BE", "admin1": "Bruxelles-Capitale", "lat": 50.85045, "lon": 4.34878, "pop": 1019022}, {"name": "Charleroi", "country": "BE", "admin1": "Wallonia", "lat": 50.41136, "lon": 4.44448, "pop": 200132}, {"name": "Deurne", "country": "BE", "admin1": "Flanders", "lat": 51.22134, "lon": 4.46595, "pop": 78747}, {"name": "Genk", "country": "BE", "admin1": "Flanders", "lat": 50.965, "lon": 5.50082, "pop": 63666}, {"name": "Gent", "country": "BE", "admin1": "Flanders", "lat": 51.05, "lon": 3.71667, "pop": 231493}, {"name": "Hasselt", "country": "BE", "admin1": "Flanders", "lat": 50.93106, "lon": 5.33781, "pop": 69222}, {"name": "Kortrijk", "country": "BE", "admin1": "Flanders", "lat": 50.82803, "lon": 3.26487, "pop": 73879}, {"name": "La Louvi\u00e8re", "country": "BE", "admin1": "Wallonia", "lat": 50.48657, "lon": 4.18785, "pop": 76668}, {"name": "Leuven", "country": "BE", "admin1": "Flanders", "lat": 50.87959, "lon": 4.70093, "pop": 92892}, {"name": "Li\u00e8ge", "country": "BE", "admin1": "Wallonia", "lat": 50.63373, "lon": 5.56749, "pop": 182597}, {"name": "Mechelen", "country": "BE", "admin1": "Flanders", "lat": 51.02574, "lon": 4.47762, "pop": 77530}, {"name": "Mons", "country": "BE", "admin1": "Wallonia", "lat": 50.45413, "lon": 3.95229, "pop": 91277}, {"name": "Mouscron", "country": "BE", "admin1": "Wallonia", "lat": 50.74497, "lon": 3.20639, "pop": 52069}, {"name": "Namur", "country": "BE", "admin1": "Wallonia", "lat": 50.4669, "lon": 4.86746, "pop": 106284}, {"name": "Ostend", "country": "BE", "admin1": "Flanders", "lat": 51.21551, "lon": 2.927, "pop": 69011}, {"name": "Roeselare", "country": "BE", "admin1": "Flanders", "lat": 50.94653, "lon": 3.12269, "pop": 56016}, {"name": "Seraing", "country": "BE", "admin1": "Wallonia", "lat": 50.58362, "lon": 5.50115, "pop": 60737}, {"name": "Sint-Niklaas", "country": "BE", "admin1": "Flanders", "lat": 51.16509, "lon": 4.1437, "pop": 69010}, {"name": "Tournai", "country": "BE", "admin1": "Wallonia", "lat": 50.60715, "lon": 3.38932, "pop": 67721}, {"name": "Verviers", "country": "BE", "admin1": "Wallonia", "lat": 50.58907, "lon": 5.86241, "pop": 52824}, {"name": "Banfora", "country": "BF", "admin1": "Cascades Region", "lat": 10.63333, "lon": -4.76667, "pop": 60288}, {"name": "Bobo-Dioulasso", "country": "BF", "admin1": "High-Basins Region", "lat": 11.17715, "lon": -4.2979, "pop": 360106}, {"name": "Koudougou", "country": "BF", "admin1": "Centre-Ouest", "lat": 12.25263, "lon": -2.36272, "pop": 87347}, {"name": "Ouagadougou", "country": "BF", "admin1": "Centre", "lat": 12.36566, "lon": -1.53388, "pop": 1086505}, {"name": "Ouahigouya", "country": "BF", "admin1": "Nord", "lat": 13.58278, "lon": -2.42158, "pop": 61096}, {"name": "Asenovgrad", "country": "BG", "admin1": "Plovdiv", "lat": 42.01667, "lon": 24.86667, "pop": 52170}, {"name": "Blagoevgrad", "country": "BG", "admin1": "Blagoevgrad", "lat": 42.01667, "lon": 23.1, "pop": 71306}, {"name": "Burgas", "country": "BG", "admin1": "Burgas", "lat": 42.50606, "lon": 27.46781, "pop": 195966}, {"name": "Dobrich", "country": "BG", "admin1": "Oblast Dobrich", "lat": 43.56667, "lon": 27.83333, "pop": 94831}, {"name": "Gabrovo", "country": "BG", "admin1": "Gabrovo", "lat": 42.87472, "lon": 25.33417, "pop": 66175}, {"name": "Haskovo", "country": "BG", "admin1": "Haskovo", "lat": 41.93415, "lon": 25.55557, "pop": 79699}, {"name": "Kardzhali", "country": "BG", "admin1": "Oblast Kardzhali", "lat": 41.65, "lon": 25.36667, "pop": 51000}, {"name": "Kazanlak", "country": "BG", "admin1": "Oblast Stara Zagora", "lat": 42.61667, "lon": 25.4, "pop": 55196}, {"name": "Pazardzhik", "country": "BG", "admin1": "Pazardzhik", "lat": 42.2, "lon": 24.33333, "pop": 75977}, {"name": "Pernik", "country": "BG", "admin1": "Pernik", "lat": 42.6, "lon": 23.03333, "pop": 82467}, {"name": "Pleven", "country": "BG", "admin1": "Oblast Pleven", "lat": 43.41667, "lon": 24.61667, "pop": 118675}, {"name": "Plovdiv", "country": "BG", "admin1": "Plovdiv", "lat": 42.15, "lon": 24.75, "pop": 340494}, {"name": "Ruse", "country": "BG", "admin1": "Oblast Ruse", "lat": 43.84872, "lon": 25.9534, "pop": 156238}, {"name": "Shumen", "country": "BG", "admin1": "Oblast Shumen", "lat": 43.27064, "lon": 26.92286, "pop": 87283}, {"name": "Sliven", "country": "BG", "admin1": "Oblast Sliven", "lat": 42.68583, "lon": 26.32917, "pop": 96368}, {"name": "Sofia", "country": "BG", "admin1": "Sofia-Grad", "lat": 42.69751, "lon": 23.32415, "pop": 1152556}, {"name": "Stara Zagora", "country": "BG", "admin1": "Oblast Stara Zagora", "lat": 42.43278, "lon": 25.64194, "pop": 143431}, {"name": "Varna", "country": "BG", "admin1": "Varna", "lat": 43.21667, "lon": 27.91667, "pop": 312770}, {"name": "Veliko T\u016drnovo", "country": "BG", "admin1": "Oblast Veliko Tarnovo", "lat": 43.08124, "lon": 25.62904, "pop": 66217}, {"name": "Vidin", "country": "BG", "admin1": "Oblast Vidin", "lat": 43.99159, "lon": 22.88236, "pop": 54409}, {"name": "Vratsa", "country": "BG", "admin1": "Oblast Vratsa", "lat": 43.21, "lon": 23.5625, "pop": 64941}, {"name": "Yambol", "country": "BG", "admin1": "Oblast Yambol", "lat": 42.48333, "lon": 26.5, "pop": 80116}, {"name": "Al Muharraq", "country": "BH", "admin1": "Muharraq Governorate", "lat": 26.25722, "lon": 50.61194, "pop": 97458}, {"name": "Ar Rif\u0101\u2018", "country": "BH", "admin1": "Southern Governorate", "lat": 26.13, "lon": 50.555, "pop": 79550}, {"name": "D\u0101r Kulayb", "country": "BH", "admin1": "Southern Governorate", "lat": 26.06861, "lon": 50.50389, "pop": 65466}, {"name": "Mad\u012bnat \u1e28amad", "country": "BH", "admin1": "Northern Governorate", "lat": 26.11528, "lon": 50.50694, "pop": 52718}, {"name": "Manama", "country": "BH", "admin1": "Capital Governorate", "lat": 26.22787, "lon": 50.58565, "pop": 147074}, {"name": "Bujumbura", "country": "BI", "admin1": "Bujumbura Mairie Province", "lat": -3.38193, "lon": 29.36142, "pop": 331700}, {"name": "Muyinga", "country": "BI", "admin1": "Muyinga Province", "lat": -2.8451, "lon": 30.3414, "pop": 71076}, {"name": "Abomey", "country": "BJ", "admin1": "Zou Department", "lat": 7.18286, "lon": 1.99119, "pop": 82154}, {"name": "Abomey-Calavi", "country": "BJ", "admin1": "Atlantique Department", "lat": 6.44852, "lon": 2.35566, "pop": 385755}, {"name": "Bohicon", "country": "BJ", "admin1": "Zou Department", "lat": 7.17826, "lon": 2.0667, "pop": 125092}, {"name": "Djougou", "country": "BJ", "admin1": "Donga", "lat": 9.70853, "lon": 1.66598, "pop": 237040}, {"name": "Kandi", "country": "BJ", "admin1": "Alibori", "lat": 11.13417, "lon": 2.93861, "pop": 109701}, {"name": "Lokossa", "country": "BJ", "admin1": "Mono", "lat": 6.63869, "lon": 1.71674, "pop": 86971}, {"name": "Natitingou", "country": "BJ", "admin1": "Atakora Department", "lat": 10.30416, "lon": 1.37962, "pop": 80892}, {"name": "Nikki", "country": "BJ", "admin1": "Borgou Department", "lat": 9.94009, "lon": 3.21075, "pop": 54009}, {"name": "Ouidah", "country": "BJ", "admin1": "Atlantique Department", "lat": 6.36307, "lon": 2.08506, "pop": 83503}, {"name": "Parakou", "country": "BJ", "admin1": "Borgou Department", "lat": 9.33716, "lon": 2.63031, "pop": 163753}, {"name": "Porto-Novo", "country": "BJ", "admin1": "D\u00e9partement de l\u2019Ou\u00e9m\u00e9", "lat": 6.49646, "lon": 2.60359, "pop": 234168}, {"name": "Sav\u00e9", "country": "BJ", "admin1": "Collines Department", "lat": 8.03424, "lon": 2.4866, "pop": 75970}, {"name": "Bandar Seri Begawan", "country": "BN", "admin1": "Daerah Brunei dan Muara", "lat": 4.89035, "lon": 114.94006, "pop": 64409}, {"name": "Cochabamba", "country": "BO", "admin1": "Departamento de Cochabamba", "lat": -17.3895, "lon": -66.1568, "pop": 900414}, {"name": "Montero", "country": "BO", "admin1": "Departamento de Santa Cruz", "lat": -17.33866, "lon": -63.2505, "pop": 88616}, {"name": "Oruro", "country": "BO", "admin1": "Departamento de Oruro", "lat": -17.98333, "lon": -67.15, "pop": 208684}, {"name": "Potos\u00ed", "country": "BO", "admin1": "Departamento de Potos\u00ed", "lat": -19.58361, "lon": -65.75306, "pop": 141251}, {"name": "Quillacollo", "country": "BO", "admin1": "Departamento de Cochabamba", "lat": -17.39228, "lon": -66.27838, "pop": 87309}, {"name": "Riberalta", "country": "BO", "admin1": "El Beni", "lat": -11.00654, "lon": -66.06312, "pop": 74014}, {"name": "Sacaba", "country": "BO", "admin1": "Departamento de Cochabamba", "lat": -17.39799, "lon": -66.03825, "pop": 107628}, {"name": "Santa Cruz de la Sierra", "country": "BO", "admin1": "Departamento de Santa Cruz", "lat": -17.78629, "lon": -63.18117, "pop": 1364389}, {"name": "Sucre", "country": "BO", "admin1": "Departamento de Chuquisaca", "lat": -19.03332, "lon": -65.26274, "pop": 224838}, {"name": "Tarija", "country": "BO", "admin1": "Departamento de Tarija", "lat": -21.53549, "lon": -64.72956, "pop": 159269}, {"name": "Tiquipaya", "country": "BO", "admin1": "Departamento de Cochabamba", "lat": -17.33801, "lon": -66.21579, "pop": 53904}, {"name": "Trinidad", "country": "BO", "admin1": "El Beni", "lat": -14.83333, "lon": -64.9, "pop": 84259}, {"name": "Yacuiba", "country": "BO", "admin1": "Departamento de Tarija", "lat": -22.01643, "lon": -63.67753, "pop": 82803}, {"name": "Abaetetuba", "country": "BR", "admin1": "Par\u00e1", "lat": -1.71806, "lon": -48.8825, "pop": 78050}, {"name": "Abreu e Lima", "country": "BR", "admin1": "Pernambuco", "lat": -7.91167, "lon": -34.90278, "pop": 81959}, {"name": "Alagoinhas", "country": "BR", "admin1": "Bahia", "lat": -12.13556, "lon": -38.41917, "pop": 122688}, {"name": "Alegrete", "country": "BR", "admin1": "Rio Grande do Sul", "lat": -29.78306, "lon": -55.79194, "pop": 87236}, {"name": "Alfenas", "country": "BR", "admin1": "Minas Gerais", "lat": -21.42917, "lon": -45.94722, "pop": 71406}, {"name": "Almirante Tamandar\u00e9", "country": "BR", "admin1": "Paran\u00e1", "lat": -25.32472, "lon": -49.31, "pop": 89499}, {"name": "Altamira", "country": "BR", "admin1": "Par\u00e1", "lat": -3.20333, "lon": -52.20639, "pop": 70888}, {"name": "Americana", "country": "BR", "admin1": "S\u00e3o Paulo", "lat": -22.73917, "lon": -47.33139, "pop": 196022}, {"name": "Ananindeua", "country": "BR", "admin1": "Par\u00e1", "lat": -1.36556, "lon": -48.37222, "pop": 433956}, {"name": "An\u00e1polis", "country": "BR", "admin1": "Goi\u00e1s", "lat": -16.32667, "lon": -48.95278, "pop": 319587}, {"name": "Andradina", "country": "BR", "admin1": "S\u00e3o Paulo", "lat": -20.89611, "lon": -51.37944, "pop": 52406}, {"name": "Angra dos Reis", "country": "BR", "admin1": "Rio de Janeiro", "lat": -23.00667, "lon": -44.31806, "pop": 153635}, {"name": "Aparecida de Goi\u00e2nia", "country": "BR", "admin1": "Goi\u00e1s", "lat": -16.82333, "lon": -49.24389, "pop": 510770}, {"name": "Apucarana", "country": "BR", "admin1": "Paran\u00e1", "lat": -23.55083, "lon": -51.46083, "pop": 107085}, {"name": "Aquiraz", "country": "BR", "admin1": "Cear\u00e1", "lat": -3.90139, "lon": -38.39111, "pop": 65116}, {"name": "Aracaju", "country": "BR", "admin1": "Sergipe", "lat": -10.91111, "lon": -37.07167, "pop": 490175}, {"name": "Ara\u00e7atuba", "country": "BR", "admin1": "S\u00e3o Paulo", "lat": -21.20889, "lon": -50.43278, "pop": 170024}, {"name": "Aracruz", "country": "BR", "admin1": "Esp\u00edrito Santo", "lat": -19.82028, "lon": -40.27333, "pop": 58271}, {"name": "Aragua\u00edna", "country": "BR", "admin1": "Tocantins", "lat": -7.19111, "lon": -48.20722, "pop": 105019}, {"name": "Araguari", "country": "BR", "admin1": "Minas Gerais", "lat": -18.64722, "lon": -48.18722, "pop": 96565}, {"name": "Arapiraca", "country": "BR", "admin1": "Alagoas", "lat": -9.7525, "lon": -36.66111, "pop": 166562}, {"name": "Arapongas", "country": "BR", "admin1": "Paran\u00e1", "lat": -23.41944, "lon": -51.42444, "pop": 97512}, {"name": "Araraquara", "country": "BR", "admin1": "S\u00e3o Paulo", "lat": -21.79444, "lon": -48.17556, "pop": 168468}, {"name": "Araras", "country": "BR", "admin1": "S\u00e3o Paulo", "lat": -22.35694, "lon": -47.38417, "pop": 107463}, {"name": "Araruama", "country": "BR", "admin1": "Rio de Janeiro", "lat": -22.87278, "lon": -42.34306, "pop": 109637}, {"name": "Arauc\u00e1ria", "country": "BR", "admin1": "Paran\u00e1", "lat": -25.59306, "lon": -49.41028, "pop": 111302}, {"name": "Arax\u00e1", "country": "BR", "admin1": "Minas Gerais", "lat": -19.59333, "lon": -46.94056, "pop": 82595}, {"name": "Arcoverde", "country": "BR", "admin1": "Pernambuco", "lat": -8.41889, "lon": -37.05389, "pop": 57163}, {"name": "Ariquemes", "country": "BR", "admin1": "Rond\u00f4nia", "lat": -9.91333, "lon": -63.04083, "pop": 58096}, {"name": "Aruj\u00e1", "country": "BR", "admin1": "S\u00e3o Paulo", "lat": -23.39611, "lon": -46.32083, "pop": 72077}, {"name": "Assis", "country": "BR", "admin1": "S\u00e3o Paulo", "lat": -22.66167, "lon": -50.41222, "pop": 101597}, {"name": "Atibaia", "country": "BR", "admin1": "S\u00e3o Paulo", "lat": -23.11694, "lon": -46.55028, "pop": 110968}, {"name": "Avar\u00e9", "country": "BR", "admin1": "S\u00e3o Paulo", "lat": -23.09861, "lon": -48.92583, "pop": 81285}, {"name": "Bacabal", "country": "BR", "admin1": "Maranh\u00e3o", "lat": -4.29167, "lon": -44.79167, "pop": 72372}, {"name": "Bag\u00e9", "country": "BR", "admin1": "Rio Grande do Sul", "lat": -31.33139, "lon": -54.10694, "pop": 98940}, {"name": "Balsas", "country": "BR", "admin1": "Maranh\u00e3o", "lat": -7.5325, "lon": -46.03556, "pop": 68056}, {"name": "Barbacena", "country": "BR", "admin1": "Minas Gerais", "lat": -21.22583, "lon": -43.77361, "pop": 122211}, {"name": "Barra do Corda", "country": "BR", "admin1": "Maranh\u00e3o", "lat": -5.50556, "lon": -45.24333, "pop": 86662}, {"name": "Barra do Gar\u00e7as", "country": "BR", "admin1": "Mato Grosso", "lat": -15.89, "lon": -52.25667, "pop": 52398}, {"name": "Barra do Pira\u00ed", "country": "BR", "admin1": "Rio de Janeiro", "lat": -22.47, "lon": -43.82556, "pop": 87668}, {"name": "Barra Mansa", "country": "BR", "admin1": "Rio de Janeiro", "lat": -22.54417, "lon": -44.17139, "pop": 164052}, {"name": "Barreiras", "country": "BR", "admin1": "Bahia", "lat": -12.15278, "lon": -44.99, "pop": 158292}, {"name": "Barretos", "country": "BR", "admin1": "S\u00e3o Paulo", "lat": -20.55722, "lon": -48.56778, "pop": 101220}, {"name": "Barueri", "country": "BR", "admin1": "S\u00e3o Paulo", "lat": -23.51056, "lon": -46.87611, "pop": 251994}, {"name": "Batatais", "country": "BR", "admin1": "S\u00e3o Paulo", "lat": -20.89111, "lon": -47.585, "pop": 51976}, {"name": "Bauru", "country": "BR", "admin1": "S\u00e3o Paulo", "lat": -22.31472, "lon": -49.06056, "pop": 335024}, {"name": "Bayeux", "country": "BR", "admin1": "Para\u00edba", "lat": -7.125, "lon": -34.93222, "pop": 91056}, {"name": "Bebedouro", "country": "BR", "admin1": "S\u00e3o Paulo", "lat": -20.94944, "lon": -48.47917, "pop": 71862}, {"name": "Bel\u00e9m", "country": "BR", "admin1": "Par\u00e1", "lat": -1.45583, "lon": -48.50444, "pop": 1407737}, {"name": "Belford Roxo", "country": "BR", "admin1": "Rio de Janeiro", "lat": -22.76417, "lon": -43.39944, "pop": 466096}, {"name": "Belo Horizonte", "country": "BR", "admin1": "Minas Gerais", "lat": -19.92083, "lon": -43.93778, "pop": 2373224}, {"name": "Bento Gon\u00e7alves", "country": "BR", "admin1": "Rio Grande do Sul", "lat": -29.17139, "lon": -51.51917, "pop": 90852}, {"name": "Betim", "country": "BR", "admin1": "Minas Gerais", "lat": -19.96778, "lon": -44.19833, "pop": 384000}, {"name": "Bezerros", "country": "BR", "admin1": "Pernambuco", "lat": -8.23333, "lon": -35.79694, "pop": 51436}, {"name": "Bigua\u00e7u", "country": "BR", "admin1": "Santa Catarina", "lat": -27.49417, "lon": -48.65556, "pop": 51992}, {"name": "Birigui", "country": "BR", "admin1": "S\u00e3o Paulo", "lat": -21.28861, "lon": -50.34, "pop": 102277}, {"name": "Blumenau", "country": "BR", "admin1": "Santa Catarina", "lat": -26.91944, "lon": -49.06611, "pop": 293949}, {"name": "Boa Vista", "country": "BR", "admin1": "Roraima", "lat": 2.81972, "lon": -60.67333, "pop": 235150}, {"name": "Botucatu", "country": "BR", "admin1": "S\u00e3o Paulo", "lat": -22.88583, "lon": -48.445, "pop": 113862}, {"name": "Bragan\u00e7a", "country": "BR", "admin1": "Par\u00e1", "lat": -1.05361, "lon": -46.76556, "pop": 57163}, {"name": "Bragan\u00e7a Paulista", "country": "BR", "admin1": "S\u00e3o Paulo", "lat": -22.9527, "lon": -46.54418, "pop": 125096}, {"name": "Bras\u00edlia", "country": "BR", "admin1": "Federal District", "lat": -15.77972, "lon": -47.92972, "pop": 2207718}, {"name": "Brusque", "country": "BR", "admin1": "Santa Catarina", "lat": -27.09795, "lon": -48.91281, "pop": 88284}, {"name": "Cabedelo", "country": "BR", "admin1": "Para\u00edba", "lat": -6.98111, "lon": -34.83389, "pop": 54839}, {"name": "Cabo", "country": "BR", "admin1": "Pernambuco", "lat": -8.28333, "lon": -35.03333, "pop": 143105}, {"name": "Cabo Frio", "country": "BR", "admin1": "Rio de Janeiro", "lat": -22.88717, "lon": -42.02622, "pop": 108239}, {"name": "Ca\u00e7ador", "country": "BR", "admin1": "Santa Catarina", "lat": -26.77528, "lon": -51.015, "pop": 63726}, {"name": "Ca\u00e7apava", "country": "BR", "admin1": "S\u00e3o Paulo", "lat": -23.10083, "lon": -45.70694, "pop": 72340}, {"name": "Cachoeira do Sul", "country": "BR", "admin1": "Rio Grande do Sul", "lat": -30.03917, "lon": -52.89389, "pop": 74694}, {"name": "Cachoeirinha", "country": "BR", "admin1": "Rio Grande do Sul", "lat": -29.95111, "lon": -51.09389, "pop": 121084}, {"name": "Cachoeiro de Itapemirim", "country": "BR", "admin1": "Esp\u00edrito Santo", "lat": -20.84889, "lon": -41.11278, "pop": 187019}, {"name": "Cacoal", "country": "BR", "admin1": "Rond\u00f4nia", "lat": -11.43861, "lon": -61.44722, "pop": 55560}, {"name": "Caic\u00f3", "country": "BR", "admin1": "Rio Grande do Norte", "lat": -6.45833, "lon": -37.09778, "pop": 54934}, {"name": "Caieiras", "country": "BR", "admin1": "S\u00e3o Paulo", "lat": -23.36417, "lon": -46.74056, "pop": 87188}, {"name": "Cajamar", "country": "BR", "admin1": "S\u00e3o Paulo", "lat": -23.35611, "lon": -46.87694, "pop": 56682}, {"name": "Caldas Novas", "country": "BR", "admin1": "Goi\u00e1s", "lat": -17.74431, "lon": -48.62789, "pop": 63675}, {"name": "Cama\u00e7ari", "country": "BR", "admin1": "Bahia", "lat": -12.6975, "lon": -38.32417, "pop": 188758}, {"name": "Camaqu\u00e3", "country": "BR", "admin1": "Rio Grande do Sul", "lat": -30.85111, "lon": -51.81222, "pop": 53169}, {"name": "Camb\u00e9", "country": "BR", "admin1": "Paran\u00e1", "lat": -23.27583, "lon": -51.27833, "pop": 91080}, {"name": "Campina Grande", "country": "BR", "admin1": "Para\u00edba", "lat": -7.23056, "lon": -35.88111, "pop": 348936}, {"name": "Campinas", "country": "BR", "admin1": "S\u00e3o Paulo", "lat": -22.90556, "lon": -47.06083, "pop": 1031554}, {"name": "Campo Grande", "country": "BR", "admin1": "Mato Grosso do Sul", "lat": -20.44278, "lon": -54.64639, "pop": 729151}, {"name": "Campo Largo", "country": "BR", "admin1": "Paran\u00e1", "lat": -25.45955, "lon": -49.53014, "pop": 94668}, {"name": "Campo Mour\u00e3o", "country": "BR", "admin1": "Paran\u00e1", "lat": -24.04309, "lon": -52.37929, "pop": 75401}, {"name": "Campos do Jord\u00e3o", "country": "BR", "admin1": "S\u00e3o Paulo", "lat": -22.73944, "lon": -45.59139, "pop": 53319}, {"name": "Campos dos Goytacazes", "country": "BR", "admin1": "Rio de Janeiro", "lat": -21.75227, "lon": -41.33044, "pop": 387417}, {"name": "Canoas", "country": "BR", "admin1": "Rio Grande do Sul", "lat": -29.91778, "lon": -51.18361, "pop": 328291}, {"name": "Caraguatatuba", "country": "BR", "admin1": "S\u00e3o Paulo", "lat": -23.62028, "lon": -45.41306, "pop": 90843}, {"name": "Carapicu\u00edba", "country": "BR", "admin1": "S\u00e3o Paulo", "lat": -23.52272, "lon": -46.835, "pop": 361112}, {"name": "Caratinga", "country": "BR", "admin1": "Minas Gerais", "lat": -19.78972, "lon": -42.13917, "pop": 60066}, {"name": "Carazinho", "country": "BR", "admin1": "Rio Grande do Sul", "lat": -28.28389, "lon": -52.78639, "pop": 59417}, {"name": "Carpina", "country": "BR", "admin1": "Pernambuco", "lat": -7.85083, "lon": -35.25472, "pop": 70689}, {"name": "Caruaru", "country": "BR", "admin1": "Pernambuco", "lat": -8.28333, "lon": -35.97611, "pop": 235371}, {"name": "Cascavel", "country": "BR", "admin1": "Cear\u00e1", "lat": -4.13306, "lon": -38.24194, "pop": 52357}, {"name": "Cascavel", "country": "BR", "admin1": "Paran\u00e1", "lat": -24.95583, "lon": -53.45528, "pop": 257172}, {"name": "Castanhal", "country": "BR", "admin1": "Par\u00e1", "lat": -1.29389, "lon": -47.92639, "pop": 137406}, {"name": "Cataguases", "country": "BR", "admin1": "Minas Gerais", "lat": -21.38917, "lon": -42.69667, "pop": 62618}, {"name": "Catal\u00e3o", "country": "BR", "admin1": "Goi\u00e1s", "lat": -18.16583, "lon": -47.94639, "pop": 63544}, {"name": "Catanduva", "country": "BR", "admin1": "S\u00e3o Paulo", "lat": -21.13778, "lon": -48.97278, "pop": 109612}, {"name": "Caucaia", "country": "BR", "admin1": "Cear\u00e1", "lat": -3.73611, "lon": -38.65306, "pop": 275019}, {"name": "Caxias", "country": "BR", "admin1": "Maranh\u00e3o", "lat": -4.85889, "lon": -43.35611, "pop": 148072}, {"name": "Caxias do Sul", "country": "BR", "admin1": "Rio Grande do Sul", "lat": -29.16806, "lon": -51.17944, "pop": 381270}, {"name": "Chapec\u00f3", "country": "BR", "admin1": "Santa Catarina", "lat": -27.09639, "lon": -52.61833, "pop": 160157}, {"name": "Cianorte", "country": "BR", "admin1": "Paran\u00e1", "lat": -23.66333, "lon": -52.605, "pop": 55994}, {"name": "Coari", "country": "BR", "admin1": "Amazonas", "lat": -4.085, "lon": -63.14139, "pop": 50490}, {"name": "Cod\u00f3", "country": "BR", "admin1": "Maranh\u00e3o", "lat": -4.45528, "lon": -43.88556, "pop": 83288}, {"name": "Colatina", "country": "BR", "admin1": "Esp\u00edrito Santo", "lat": -19.53944, "lon": -40.63056, "pop": 101190}, {"name": "Colombo", "country": "BR", "admin1": "Paran\u00e1", "lat": -25.29167, "lon": -49.22417, "pop": 217000}, {"name": "Conc\u00f3rdia", "country": "BR", "admin1": "Santa Catarina", "lat": -27.23417, "lon": -52.02778, "pop": 55367}, {"name": "Conselheiro Lafaiete", "country": "BR", "admin1": "Minas Gerais", "lat": -20.66028, "lon": -43.78611, "pop": 111596}, {"name": "Contagem", "country": "BR", "admin1": "Minas Gerais", "lat": -19.93167, "lon": -44.05361, "pop": 627123}, {"name": "Coronel Fabriciano", "country": "BR", "admin1": "Minas Gerais", "lat": -19.51861, "lon": -42.62889, "pop": 100916}, {"name": "Corumb\u00e1", "country": "BR", "admin1": "Mato Grosso do Sul", "lat": -19.00917, "lon": -57.65333, "pop": 96520}, {"name": "Cotia", "country": "BR", "admin1": "S\u00e3o Paulo", "lat": -23.60389, "lon": -46.91917, "pop": 174828}, {"name": "Crate\u00fas", "country": "BR", "admin1": "Cear\u00e1", "lat": -5.17833, "lon": -40.6775, "pop": 52933}, {"name": "Crato", "country": "BR", "admin1": "Cear\u00e1", "lat": -7.23417, "lon": -39.40944, "pop": 88786}, {"name": "Crici\u00fama", "country": "BR", "admin1": "Santa Catarina", "lat": -28.6775, "lon": -49.36972, "pop": 161954}, {"name": "Cruz Alta", "country": "BR", "admin1": "Rio Grande do Sul", "lat": -28.64397, "lon": -53.60633, "pop": 65275}, {"name": "Cruzeiro", "country": "BR", "admin1": "S\u00e3o Paulo", "lat": -22.57316, "lon": -44.97108, "pop": 72022}, {"name": "Cruzeiro do Sul", "country": "BR", "admin1": "Acre", "lat": -7.62759, "lon": -72.67756, "pop": 79819}, {"name": "Cubat\u00e3o", "country": "BR", "admin1": "S\u00e3o Paulo", "lat": -23.895, "lon": -46.42528, "pop": 118410}, {"name": "Cuiab\u00e1", "country": "BR", "admin1": "Mato Grosso", "lat": -15.59611, "lon": -56.09667, "pop": 521934}, {"name": "Curitiba", "country": "BR", "admin1": "Paran\u00e1", "lat": -25.42778, "lon": -49.27306, "pop": 1718421}, {"name": "Curvelo", "country": "BR", "admin1": "Minas Gerais", "lat": -18.75639, "lon": -44.43083, "pop": 63954}, {"name": "Diadema", "country": "BR", "admin1": "S\u00e3o Paulo", "lat": -23.68611, "lon": -46.62278, "pop": 390633}, {"name": "Divin\u00f3polis", "country": "BR", "admin1": "Minas Gerais", "lat": -20.14355, "lon": -44.89065, "pop": 193832}, {"name": "Dourados", "country": "BR", "admin1": "Mato Grosso do Sul", "lat": -22.22111, "lon": -54.80556, "pop": 162202}, {"name": "Duque de Caxias", "country": "BR", "admin1": "Rio de Janeiro", "lat": -22.78556, "lon": -43.31167, "pop": 818329}, {"name": "Embu", "country": "BR", "admin1": "S\u00e3o Paulo", "lat": -23.64889, "lon": -46.85222, "pop": 221733}, {"name": "Embu Gua\u00e7u", "country": "BR", "admin1": "S\u00e3o Paulo", "lat": -23.83222, "lon": -46.81139, "pop": 76310}, {"name": "Erechim", "country": "BR", "admin1": "Rio Grande do Sul", "lat": -27.63461, "lon": -52.2754, "pop": 96087}, {"name": "Esmeraldas", "country": "BR", "admin1": "Minas Gerais", "lat": -19.7625, "lon": -44.31389, "pop": 103206}, {"name": "Est\u00e2ncia", "country": "BR", "admin1": "Sergipe", "lat": -11.26833, "lon": -37.43833, "pop": 55654}, {"name": "Esteio", "country": "BR", "admin1": "Rio Grande do Sul", "lat": -29.86139, "lon": -51.17917, "pop": 84902}, {"name": "Eun\u00e1polis", "country": "BR", "admin1": "Bahia", "lat": -16.3775, "lon": -39.58028, "pop": 114275}, {"name": "Farroupilha", "country": "BR", "admin1": "Rio Grande do Sul", "lat": -29.225, "lon": -51.34778, "pop": 57650}, {"name": "Feira de Santana", "country": "BR", "admin1": "Bahia", "lat": -12.26667, "lon": -38.96667, "pop": 481911}, {"name": "Fernand\u00f3polis", "country": "BR", "admin1": "S\u00e3o Paulo", "lat": -20.28389, "lon": -50.24639, "pop": 61931}, {"name": "Ferraz de Vasconcelos", "country": "BR", "admin1": "S\u00e3o Paulo", "lat": -23.54083, "lon": -46.36861, "pop": 167900}, {"name": "Florian\u00f3polis", "country": "BR", "admin1": "Santa Catarina", "lat": -27.59667, "lon": -48.54917, "pop": 412724}, {"name": "Formiga", "country": "BR", "admin1": "Minas Gerais", "lat": -20.46444, "lon": -45.42639, "pop": 56404}, {"name": "Formosa", "country": "BR", "admin1": "Goi\u00e1s", "lat": -15.53722, "lon": -47.33444, "pop": 81232}, {"name": "Fortaleza", "country": "BR", "admin1": "Cear\u00e1", "lat": -3.71722, "lon": -38.54306, "pop": 2400000}, {"name": "Foz do Igua\u00e7u", "country": "BR", "admin1": "Paran\u00e1", "lat": -25.54778, "lon": -54.58806, "pop": 293523}, {"name": "Franca", "country": "BR", "admin1": "S\u00e3o Paulo", "lat": -20.53861, "lon": -47.40083, "pop": 305041}, {"name": "Francisco Beltr\u00e3o", "country": "BR", "admin1": "Paran\u00e1", "lat": -26.08111, "lon": -53.055, "pop": 57618}, {"name": "Francisco Morato", "country": "BR", "admin1": "S\u00e3o Paulo", "lat": -23.28167, "lon": -46.74528, "pop": 171790}, {"name": "Franco da Rocha", "country": "BR", "admin1": "S\u00e3o Paulo", "lat": -23.32167, "lon": -46.72694, "pop": 108858}, {"name": "Garanhuns", "country": "BR", "admin1": "Pernambuco", "lat": -8.88202, "lon": -36.50216, "pop": 110085}, {"name": "Goi\u00e2nia", "country": "BR", "admin1": "Goi\u00e1s", "lat": -16.67861, "lon": -49.25389, "pop": 1171195}, {"name": "Governador Valadares", "country": "BR", "admin1": "Minas Gerais", "lat": -18.85111, "lon": -41.94944, "pop": 250878}, {"name": "Gravat\u00e1", "country": "BR", "admin1": "Pernambuco", "lat": -8.20111, "lon": -35.56472, "pop": 61249}, {"name": "Gravata\u00ed", "country": "BR", "admin1": "Rio Grande do Sul", "lat": -29.94218, "lon": -50.99278, "pop": 238778}, {"name": "Gua\u00edba", "country": "BR", "admin1": "Rio Grande do Sul", "lat": -30.11389, "lon": -51.325, "pop": 101024}, {"name": "Guanambi", "country": "BR", "admin1": "Bahia", "lat": -14.22333, "lon": -42.78139, "pop": 58877}, {"name": "Guarapari", "country": "BR", "admin1": "Esp\u00edrito Santo", "lat": -20.67182, "lon": -40.50196, "pop": 100925}, {"name": "Guarapuava", "country": "BR", "admin1": "Paran\u00e1", "lat": -25.39048, "lon": -51.46541, "pop": 150850}, {"name": "Guaratinguet\u00e1", "country": "BR", "admin1": "S\u00e3o Paulo", "lat": -22.81639, "lon": -45.1925, "pop": 105880}, {"name": "Guaruj\u00e1", "country": "BR", "admin1": "S\u00e3o Paulo", "lat": -23.99306, "lon": -46.25639, "pop": 310424}, {"name": "Guarulhos", "country": "BR", "admin1": "S\u00e3o Paulo", "lat": -23.46278, "lon": -46.53333, "pop": 1169577}, {"name": "Gurupi", "country": "BR", "admin1": "Tocantins", "lat": -11.72917, "lon": -49.06861, "pop": 64789}, {"name": "Horizonte", "country": "BR", "admin1": "Cear\u00e1", "lat": -4.1, "lon": -38.48333, "pop": 51171}, {"name": "Hortol\u00e2ndia", "country": "BR", "admin1": "S\u00e3o Paulo", "lat": -22.85833, "lon": -47.22, "pop": 203533}, {"name": "Ibirit\u00e9", "country": "BR", "admin1": "Minas Gerais", "lat": -20.02194, "lon": -44.05889, "pop": 141374}, {"name": "I\u00e7ara", "country": "BR", "admin1": "Santa Catarina", "lat": -28.71333, "lon": -49.3, "pop": 51454}, {"name": "Igarassu", "country": "BR", "admin1": "Pernambuco", "lat": -7.83417, "lon": -34.90639, "pop": 86457}, {"name": "Iguatu", "country": "BR", "admin1": "Cear\u00e1", "lat": -6.35944, "lon": -39.29861, "pop": 70380}, {"name": "Iju\u00ed", "country": "BR", "admin1": "Rio Grande do Sul", "lat": -28.38778, "lon": -53.91472, "pop": 71202}, {"name": "Ilh\u00e9us", "country": "BR", "admin1": "Bahia", "lat": -14.79364, "lon": -39.03949, "pop": 155499}, {"name": "Imperatriz", "country": "BR", "admin1": "Maranh\u00e3o", "lat": -5.52639, "lon": -47.49167, "pop": 218106}, {"name": "Indaiatuba", "country": "BR", "admin1": "S\u00e3o Paulo", "lat": -23.08842, "lon": -47.2119, "pop": 179911}, {"name": "Ipatinga", "country": "BR", "admin1": "Minas Gerais", "lat": -19.46833, "lon": -42.53667, "pop": 228746}, {"name": "Ipojuca", "country": "BR", "admin1": "Pernambuco", "lat": -8.39889, "lon": -35.06389, "pop": 53364}, {"name": "Irec\u00ea", "country": "BR", "admin1": "Bahia", "lat": -11.30417, "lon": -41.85583, "pop": 63626}, {"name": "Itabaiana", "country": "BR", "admin1": "Sergipe", "lat": -10.685, "lon": -37.42528, "pop": 63888}, {"name": "Itabira", "country": "BR", "admin1": "Minas Gerais", "lat": -19.61917, "lon": -43.22694, "pop": 99496}, {"name": "Itabora\u00ed", "country": "BR", "admin1": "Rio de Janeiro", "lat": -22.74444, "lon": -42.85944, "pop": 182498}, {"name": "Itabuna", "country": "BR", "admin1": "Bahia", "lat": -14.78556, "lon": -39.28028, "pop": 205660}, {"name": "Itacoatiara", "country": "BR", "admin1": "Amazonas", "lat": -3.14306, "lon": -58.44417, "pop": 64937}, {"name": "Itagua\u00ed", "country": "BR", "admin1": "Rio de Janeiro", "lat": -22.85222, "lon": -43.77528, "pop": 100752}, {"name": "Itaituba", "country": "BR", "admin1": "Par\u00e1", "lat": -4.27611, "lon": -55.98361, "pop": 64756}, {"name": "Itaja\u00ed", "country": "BR", "admin1": "Santa Catarina", "lat": -26.90778, "lon": -48.66194, "pop": 155716}, {"name": "Itajub\u00e1", "country": "BR", "admin1": "Minas Gerais", "lat": -22.42556, "lon": -45.45278, "pop": 81870}, {"name": "Itanha\u00e9m", "country": "BR", "admin1": "S\u00e3o Paulo", "lat": -24.18306, "lon": -46.78889, "pop": 90385}, {"name": "Itapecerica da Serra", "country": "BR", "admin1": "S\u00e3o Paulo", "lat": -23.71694, "lon": -46.84917, "pop": 151605}, {"name": "Itaperuna", "country": "BR", "admin1": "Rio de Janeiro", "lat": -21.205, "lon": -41.88778, "pop": 84435}, {"name": "Itapetinga", "country": "BR", "admin1": "Bahia", "lat": -15.24889, "lon": -40.24778, "pop": 59721}, {"name": "Itapetininga", "country": "BR", "admin1": "S\u00e3o Paulo", "lat": -23.59167, "lon": -48.05306, "pop": 126243}, {"name": "Itapeva", "country": "BR", "admin1": "S\u00e3o Paulo", "lat": -23.98222, "lon": -48.87556, "pop": 62957}, {"name": "Itapevi", "country": "BR", "admin1": "S\u00e3o Paulo", "lat": -23.54889, "lon": -46.93417, "pop": 201748}, {"name": "Itapipoca", "country": "BR", "admin1": "Cear\u00e1", "lat": -3.49444, "lon": -39.57861, "pop": 55784}, {"name": "Itapira", "country": "BR", "admin1": "S\u00e3o Paulo", "lat": -22.43611, "lon": -46.82167, "pop": 61607}, {"name": "Itaquaquecetuba", "country": "BR", "admin1": "S\u00e3o Paulo", "lat": -23.48611, "lon": -46.34833, "pop": 336679}, {"name": "Itatiba", "country": "BR", "admin1": "S\u00e3o Paulo", "lat": -23.00583, "lon": -46.83889, "pop": 67934}, {"name": "Ita\u00fana", "country": "BR", "admin1": "Minas Gerais", "lat": -20.07528, "lon": -44.57639, "pop": 77400}, {"name": "Itu", "country": "BR", "admin1": "S\u00e3o Paulo", "lat": -23.26417, "lon": -47.29917, "pop": 137586}, {"name": "Ituiutaba", "country": "BR", "admin1": "Minas Gerais", "lat": -18.97428, "lon": -49.46212, "pop": 85345}, {"name": "Itumbiara", "country": "BR", "admin1": "Goi\u00e1s", "lat": -18.41917, "lon": -49.21528, "pop": 79582}, {"name": "Jaboat\u00e3o dos Guararapes", "country": "BR", "admin1": "Pernambuco", "lat": -8.11278, "lon": -35.01472, "pop": 630008}, {"name": "Jaboticabal", "country": "BR", "admin1": "S\u00e3o Paulo", "lat": -21.25472, "lon": -48.32222, "pop": 69394}, {"name": "Jacare\u00ed", "country": "BR", "admin1": "S\u00e3o Paulo", "lat": -23.30528, "lon": -45.96583, "pop": 213110}, {"name": "Jana\u00faba", "country": "BR", "admin1": "Minas Gerais", "lat": -15.8025, "lon": -43.30889, "pop": 56572}, {"name": "Jandira", "country": "BR", "admin1": "S\u00e3o Paulo", "lat": -23.5275, "lon": -46.9025, "pop": 113605}, {"name": "Japeri", "country": "BR", "admin1": "Rio de Janeiro", "lat": -22.64306, "lon": -43.65333, "pop": 95101}, {"name": "Jaragu\u00e1 do Sul", "country": "BR", "admin1": "Santa Catarina", "lat": -26.48611, "lon": -49.06667, "pop": 130130}, {"name": "Jata\u00ed", "country": "BR", "admin1": "Goi\u00e1s", "lat": -17.87939, "lon": -51.72166, "pop": 76547}, {"name": "Ja\u00fa", "country": "BR", "admin1": "S\u00e3o Paulo", "lat": -22.29639, "lon": -48.55778, "pop": 119206}, {"name": "Jequi\u00e9", "country": "BR", "admin1": "Bahia", "lat": -13.85875, "lon": -40.08512, "pop": 127475}, {"name": "Ji Paran\u00e1", "country": "BR", "admin1": "Rond\u00f4nia", "lat": -10.88528, "lon": -61.95167, "pop": 107697}, {"name": "Jo\u00e3o Monlevade", "country": "BR", "admin1": "Minas Gerais", "lat": -19.81, "lon": -43.17361, "pop": 72762}, {"name": "Jo\u00e3o Pessoa", "country": "BR", "admin1": "Para\u00edba", "lat": -7.115, "lon": -34.86306, "pop": 650883}, {"name": "Joinville", "country": "BR", "admin1": "Santa Catarina", "lat": -26.30444, "lon": -48.84556, "pop": 461304}, {"name": "Juazeiro do Norte", "country": "BR", "admin1": "Cear\u00e1", "lat": -7.21306, "lon": -39.31528, "pop": 225230}, {"name": "Juiz de Fora", "country": "BR", "admin1": "Minas Gerais", "lat": -21.76417, "lon": -43.35028, "pop": 470193}, {"name": "Jundia\u00ed", "country": "BR", "admin1": "S\u00e3o Paulo", "lat": -23.18639, "lon": -46.88417, "pop": 321589}, {"name": "Lages", "country": "BR", "admin1": "Santa Catarina", "lat": -27.81611, "lon": -50.32611, "pop": 164676}, {"name": "Lajeado", "country": "BR", "admin1": "Rio Grande do Sul", "lat": -29.46694, "lon": -51.96139, "pop": 65407}, {"name": "Lauro de Freitas", "country": "BR", "admin1": "Bahia", "lat": -12.89444, "lon": -38.32722, "pop": 141280}, {"name": "Lavras", "country": "BR", "admin1": "Minas Gerais", "lat": -21.24528, "lon": -44.99972, "pop": 81472}, {"name": "Leme", "country": "BR", "admin1": "S\u00e3o Paulo", "lat": -22.18556, "lon": -47.39028, "pop": 81209}, {"name": "Len\u00e7\u00f3is Paulista", "country": "BR", "admin1": "S\u00e3o Paulo", "lat": -22.59861, "lon": -48.80028, "pop": 57375}, {"name": "Limeira", "country": "BR", "admin1": "S\u00e3o Paulo", "lat": -22.56472, "lon": -47.40167, "pop": 289665}, {"name": "Linhares", "country": "BR", "admin1": "Esp\u00edrito Santo", "lat": -19.39111, "lon": -40.07222, "pop": 105075}, {"name": "Lins", "country": "BR", "admin1": "S\u00e3o Paulo", "lat": -21.67861, "lon": -49.7425, "pop": 69451}, {"name": "Londrina", "country": "BR", "admin1": "Paran\u00e1", "lat": -23.31028, "lon": -51.16278, "pop": 471832}, {"name": "Lorena", "country": "BR", "admin1": "S\u00e3o Paulo", "lat": -22.73083, "lon": -45.12472, "pop": 76506}, {"name": "Luzi\u00e2nia", "country": "BR", "admin1": "Goi\u00e1s", "lat": -16.2525, "lon": -47.95028, "pop": 143601}, {"name": "Maca\u00e9", "country": "BR", "admin1": "Rio de Janeiro", "lat": -22.38484, "lon": -41.78324, "pop": 143029}, {"name": "Macap\u00e1", "country": "BR", "admin1": "Amap\u00e1", "lat": 0.03889, "lon": -51.06639, "pop": 338936}, {"name": "Macei\u00f3", "country": "BR", "admin1": "Alagoas", "lat": -9.66583, "lon": -35.73528, "pop": 954991}, {"name": "Mairipor\u00e3", "country": "BR", "admin1": "S\u00e3o Paulo", "lat": -23.31861, "lon": -46.58667, "pop": 54415}, {"name": "Manacapuru", "country": "BR", "admin1": "Amazonas", "lat": -3.29972, "lon": -60.62056, "pop": 52459}, {"name": "Manaus", "country": "BR", "admin1": "Amazonas", "lat": -3.10194, "lon": -60.025, "pop": 1598210}, {"name": "Manhua\u00e7u", "country": "BR", "admin1": "Minas Gerais", "lat": -20.25806, "lon": -42.03361, "pop": 54607}, {"name": "Marab\u00e1", "country": "BR", "admin1": "Par\u00e1", "lat": -5.38146, "lon": -49.13232, "pop": 145860}, {"name": "Maracana\u00fa", "country": "BR", "admin1": "Cear\u00e1", "lat": -3.87667, "lon": -38.62556, "pop": 193529}, {"name": "Marechal Deodoro", "country": "BR", "admin1": "Alagoas", "lat": -9.71028, "lon": -35.895, "pop": 50571}, {"name": "Maric\u00e1", "country": "BR", "admin1": "Rio de Janeiro", "lat": -22.91944, "lon": -42.81861, "pop": 79551}, {"name": "Mar\u00edlia", "country": "BR", "admin1": "S\u00e3o Paulo", "lat": -22.21389, "lon": -49.94583, "pop": 212218}, {"name": "Maring\u00e1", "country": "BR", "admin1": "Paran\u00e1", "lat": -23.42528, "lon": -51.93861, "pop": 311724}, {"name": "Mat\u00e3o", "country": "BR", "admin1": "S\u00e3o Paulo", "lat": -21.60333, "lon": -48.36583, "pop": 72468}, {"name": "Mau\u00e1", "country": "BR", "admin1": "S\u00e3o Paulo", "lat": -23.66778, "lon": -46.46139, "pop": 386069}, {"name": "Mococa", "country": "BR", "admin1": "S\u00e3o Paulo", "lat": -21.46778, "lon": -47.00472, "pop": 59654}, {"name": "Mogi das Cruzes", "country": "BR", "admin1": "S\u00e3o Paulo", "lat": -23.52278, "lon": -46.18833, "pop": 325746}, {"name": "Mogi Gua\u00e7u", "country": "BR", "admin1": "S\u00e3o Paulo", "lat": -22.3677, "lon": -46.94552, "pop": 128865}, {"name": "Mogi Mirim", "country": "BR", "admin1": "S\u00e3o Paulo", "lat": -22.43194, "lon": -46.95778, "pop": 78244}, {"name": "Montenegro", "country": "BR", "admin1": "Rio Grande do Sul", "lat": -29.68861, "lon": -51.46111, "pop": 54057}, {"name": "Montes Claros", "country": "BR", "admin1": "Minas Gerais", "lat": -16.735, "lon": -43.86167, "pop": 332379}, {"name": "Mossor\u00f3", "country": "BR", "admin1": "Rio Grande do Norte", "lat": -5.1875, "lon": -37.34417, "pop": 202005}, {"name": "Muria\u00e9", "country": "BR", "admin1": "Minas Gerais", "lat": -21.13056, "lon": -42.36639, "pop": 91173}, {"name": "Natal", "country": "BR", "admin1": "Rio Grande do Norte", "lat": -5.795, "lon": -35.20944, "pop": 763043}, {"name": "Nil\u00f3polis", "country": "BR", "admin1": "Rio de Janeiro", "lat": -22.8075, "lon": -43.41389, "pop": 147281}, {"name": "Niter\u00f3i", "country": "BR", "admin1": "Rio de Janeiro", "lat": -22.88333, "lon": -43.10361, "pop": 456456}, {"name": "Nossa Senhora do Socorro", "country": "BR", "admin1": "Sergipe", "lat": -10.855, "lon": -37.12611, "pop": 163993}, {"name": "Nova Friburgo", "country": "BR", "admin1": "Rio de Janeiro", "lat": -22.28194, "lon": -42.53111, "pop": 153361}, {"name": "Nova Igua\u00e7u", "country": "BR", "admin1": "Rio de Janeiro", "lat": -22.75917, "lon": -43.45111, "pop": 1002118}, {"name": "Nova Lima", "country": "BR", "admin1": "Minas Gerais", "lat": -19.98556, "lon": -43.84667, "pop": 88399}, {"name": "Novo Hamburgo", "country": "BR", "admin1": "Rio Grande do Sul", "lat": -29.67833, "lon": -51.13056, "pop": 253841}, {"name": "Olinda", "country": "BR", "admin1": "Pernambuco", "lat": -8.00889, "lon": -34.85528, "pop": 366754}, {"name": "Osasco", "country": "BR", "admin1": "S\u00e3o Paulo", "lat": -23.5325, "lon": -46.79167, "pop": 677856}, {"name": "Ourinhos", "country": "BR", "admin1": "S\u00e3o Paulo", "lat": -22.97889, "lon": -49.87056, "pop": 97799}, {"name": "Ouro Preto", "country": "BR", "admin1": "Minas Gerais", "lat": -20.39484, "lon": -43.50517, "pop": 63678}, {"name": "Pacatuba", "country": "BR", "admin1": "Cear\u00e1", "lat": -3.98417, "lon": -38.62028, "pop": 55291}, {"name": "Palho\u00e7a", "country": "BR", "admin1": "Santa Catarina", "lat": -27.64528, "lon": -48.66778, "pop": 122423}, {"name": "Palmas", "country": "BR", "admin1": "Tocantins", "lat": -10.16745, "lon": -48.32766, "pop": 196272}, {"name": "Par\u00e1 de Minas", "country": "BR", "admin1": "Minas Gerais", "lat": -19.86028, "lon": -44.60833, "pop": 75786}, {"name": "Paracatu", "country": "BR", "admin1": "Minas Gerais", "lat": -17.22222, "lon": -46.87472, "pop": 70753}, {"name": "Paragominas", "country": "BR", "admin1": "Par\u00e1", "lat": -2.96667, "lon": -47.48333, "pop": 69613}, {"name": "Paranagu\u00e1", "country": "BR", "admin1": "Paran\u00e1", "lat": -25.51626, "lon": -48.52537, "pop": 141013}, {"name": "Paranava\u00ed", "country": "BR", "admin1": "Paran\u00e1", "lat": -23.07306, "lon": -52.46528, "pop": 72848}, {"name": "Parauapebas", "country": "BR", "admin1": "Par\u00e1", "lat": -6.0675, "lon": -49.90222, "pop": 196259}, {"name": "Parintins", "country": "BR", "admin1": "Amazonas", "lat": -2.62833, "lon": -56.73583, "pop": 64428}, {"name": "Parna\u00edba", "country": "BR", "admin1": "Piau\u00ed", "lat": -2.90472, "lon": -41.77667, "pop": 138008}, {"name": "Parnamirim", "country": "BR", "admin1": "Rio Grande do Norte", "lat": -5.91556, "lon": -35.26278, "pop": 150343}, {"name": "Passo Fundo", "country": "BR", "admin1": "Rio Grande do Sul", "lat": -28.26278, "lon": -52.40667, "pop": 179529}, {"name": "Passos", "country": "BR", "admin1": "Minas Gerais", "lat": -20.71889, "lon": -46.60972, "pop": 98752}, {"name": "Pato Branco", "country": "BR", "admin1": "Paran\u00e1", "lat": -26.22861, "lon": -52.67056, "pop": 65754}, {"name": "Patos", "country": "BR", "admin1": "Para\u00edba", "lat": -7.02444, "lon": -37.28, "pop": 92575}, {"name": "Patos de Minas", "country": "BR", "admin1": "Minas Gerais", "lat": -18.57889, "lon": -46.51806, "pop": 126234}, {"name": "Patroc\u00ednio", "country": "BR", "admin1": "Minas Gerais", "lat": -18.94389, "lon": -46.9925, "pop": 71963}, {"name": "Paul\u00ednia", "country": "BR", "admin1": "S\u00e3o Paulo", "lat": -22.76111, "lon": -47.15417, "pop": 65595}, {"name": "Paulista", "country": "BR", "admin1": "Pernambuco", "lat": -7.94083, "lon": -34.87306, "pop": 289971}, {"name": "Paulo Afonso", "country": "BR", "admin1": "Bahia", "lat": -9.40611, "lon": -38.21472, "pop": 85350}, {"name": "Pelotas", "country": "BR", "admin1": "Rio Grande do Sul", "lat": -31.76997, "lon": -52.34101, "pop": 320674}, {"name": "Pen\u00e1polis", "country": "BR", "admin1": "S\u00e3o Paulo", "lat": -21.41972, "lon": -50.0775, "pop": 54477}, {"name": "Peru\u00edbe", "country": "BR", "admin1": "S\u00e3o Paulo", "lat": -24.32, "lon": -46.99833, "pop": 63030}, {"name": "Petrolina", "country": "BR", "admin1": "Pernambuco", "lat": -9.39861, "lon": -40.50083, "pop": 194650}, {"name": "Petr\u00f3polis", "country": "BR", "admin1": "Rio de Janeiro", "lat": -22.505, "lon": -43.17861, "pop": 272691}, {"name": "Picos", "country": "BR", "admin1": "Piau\u00ed", "lat": -7.07694, "lon": -41.46694, "pop": 57495}, {"name": "Pindamonhangaba", "country": "BR", "admin1": "S\u00e3o Paulo", "lat": -22.92389, "lon": -45.46167, "pop": 132218}, {"name": "Pinhais", "country": "BR", "admin1": "Paran\u00e1", "lat": -25.44472, "lon": -49.1925, "pop": 117000}, {"name": "Piracicaba", "country": "BR", "admin1": "S\u00e3o Paulo", "lat": -22.72528, "lon": -47.64917, "pop": 342209}, {"name": "Pirapora", "country": "BR", "admin1": "Minas Gerais", "lat": -17.345, "lon": -44.94194, "pop": 51656}, {"name": "Pirassununga", "country": "BR", "admin1": "S\u00e3o Paulo", "lat": -21.99611, "lon": -47.42583, "pop": 60413}, {"name": "Planaltina", "country": "BR", "admin1": "Goi\u00e1s", "lat": -15.45278, "lon": -47.61417, "pop": 88853}, {"name": "Planaltina", "country": "BR", "admin1": "Federal District", "lat": -15.61791, "lon": -47.64874, "pop": 189412}, {"name": "Po\u00e1", "country": "BR", "admin1": "S\u00e3o Paulo", "lat": -23.52806, "lon": -46.34472, "pop": 107432}, {"name": "Po\u00e7os de Caldas", "country": "BR", "admin1": "Minas Gerais", "lat": -21.78778, "lon": -46.56139, "pop": 146588}, {"name": "Ponta Grossa", "country": "BR", "admin1": "Paran\u00e1", "lat": -25.095, "lon": -50.16194, "pop": 292177}, {"name": "Ponta Por\u00e3", "country": "BR", "admin1": "Mato Grosso do Sul", "lat": -22.53611, "lon": -55.72556, "pop": 55763}, {"name": "Porto Alegre", "country": "BR", "admin1": "Rio Grande do Sul", "lat": -30.03283, "lon": -51.23019, "pop": 1372741}, {"name": "Porto Seguro", "country": "BR", "admin1": "Bahia", "lat": -16.44972, "lon": -39.06472, "pop": 123173}, {"name": "Porto Velho", "country": "BR", "admin1": "Rond\u00f4nia", "lat": -8.76194, "lon": -63.90389, "pop": 306180}, {"name": "Pouso Alegre", "country": "BR", "admin1": "Minas Gerais", "lat": -22.23, "lon": -45.93639, "pop": 115201}, {"name": "Praia Grande", "country": "BR", "admin1": "S\u00e3o Paulo", "lat": -24.00583, "lon": -46.40278, "pop": 250027}, {"name": "Presidente Prudente", "country": "BR", "admin1": "S\u00e3o Paulo", "lat": -22.12556, "lon": -51.38889, "pop": 209502}, {"name": "Queimados", "country": "BR", "admin1": "Rio de Janeiro", "lat": -22.71611, "lon": -43.55528, "pop": 135741}, {"name": "Recife", "country": "BR", "admin1": "Pernambuco", "lat": -8.05389, "lon": -34.88111, "pop": 1478098}, {"name": "Reden\u00e7\u00e3o", "country": "BR", "admin1": "Par\u00e1", "lat": -8.02861, "lon": -50.03139, "pop": 82464}, {"name": "Resende", "country": "BR", "admin1": "Rio de Janeiro", "lat": -22.46889, "lon": -44.44667, "pop": 111514}, {"name": "Ribeir\u00e3o das Neves", "country": "BR", "admin1": "Minas Gerais", "lat": -19.76694, "lon": -44.08667, "pop": 406802}, {"name": "Ribeir\u00e3o Pires", "country": "BR", "admin1": "S\u00e3o Paulo", "lat": -23.71056, "lon": -46.41333, "pop": 111888}, {"name": "Ribeir\u00e3o Preto", "country": "BR", "admin1": "S\u00e3o Paulo", "lat": -21.1775, "lon": -47.81028, "pop": 619746}, {"name": "Rio Branco", "country": "BR", "admin1": "Acre", "lat": -9.97472, "lon": -67.81, "pop": 257642}, {"name": "Rio Claro", "country": "BR", "admin1": "S\u00e3o Paulo", "lat": -22.41139, "lon": -47.56139, "pop": 180147}, {"name": "Rio das Ostras", "country": "BR", "admin1": "Rio de Janeiro", "lat": -22.52694, "lon": -41.945, "pop": 100000}, {"name": "Rio de Janeiro", "country": "BR", "admin1": "Rio de Janeiro", "lat": -22.90642, "lon": -43.18223, "pop": 6023699}, {"name": "Rio do Sul", "country": "BR", "admin1": "Santa Catarina", "lat": -27.21417, "lon": -49.64306, "pop": 51944}, {"name": "Rio Grande", "country": "BR", "admin1": "Rio Grande do Sul", "lat": -32.035, "lon": -52.09861, "pop": 187838}, {"name": "Rio Largo", "country": "BR", "admin1": "Alagoas", "lat": -9.47833, "lon": -35.85333, "pop": 63387}, {"name": "Rio Verde", "country": "BR", "admin1": "Goi\u00e1s", "lat": -17.79806, "lon": -50.92806, "pop": 229651}, {"name": "Rol\u00e2ndia", "country": "BR", "admin1": "Paran\u00e1", "lat": -23.30972, "lon": -51.36917, "pop": 51004}, {"name": "Rondon\u00f3polis", "country": "BR", "admin1": "Mato Grosso", "lat": -16.47083, "lon": -54.63556, "pop": 152912}, {"name": "Salto", "country": "BR", "admin1": "S\u00e3o Paulo", "lat": -23.20083, "lon": -47.28694, "pop": 98387}, {"name": "Salvador", "country": "BR", "admin1": "Bahia", "lat": -12.97111, "lon": -38.51083, "pop": 2711840}, {"name": "Santa B\u00e1rbara d'Oeste", "country": "BR", "admin1": "S\u00e3o Paulo", "lat": -22.75361, "lon": -47.41361, "pop": 188000}, {"name": "Santa Cruz do Capibaribe", "country": "BR", "admin1": "Pernambuco", "lat": -7.9575, "lon": -36.20472, "pop": 76450}, {"name": "Santa Cruz do Sul", "country": "BR", "admin1": "Rio Grande do Sul", "lat": -29.7175, "lon": -52.42583, "pop": 106113}, {"name": "Santa In\u00eas", "country": "BR", "admin1": "Maranh\u00e3o", "lat": -3.66667, "lon": -45.38, "pop": 67424}, {"name": "Santa Luzia", "country": "BR", "admin1": "Minas Gerais", "lat": -19.76972, "lon": -43.85139, "pop": 243503}, {"name": "Santa Maria", "country": "BR", "admin1": "Rio Grande do Sul", "lat": -29.68417, "lon": -53.80694, "pop": 249219}, {"name": "Santa Rita", "country": "BR", "admin1": "Para\u00edba", "lat": -7.11389, "lon": -34.97806, "pop": 119893}, {"name": "Santa Rosa", "country": "BR", "admin1": "Rio Grande do Sul", "lat": -27.87083, "lon": -54.48139, "pop": 58957}, {"name": "Santana", "country": "BR", "admin1": "Amap\u00e1", "lat": -0.05833, "lon": -51.18167, "pop": 83927}, {"name": "Santana de Parna\u00edba", "country": "BR", "admin1": "S\u00e3o Paulo", "lat": -23.44417, "lon": -46.91778, "pop": 98989}, {"name": "Santana do Livramento", "country": "BR", "admin1": "Rio Grande do Sul", "lat": -30.89083, "lon": -55.53278, "pop": 89694}, {"name": "Santar\u00e9m", "country": "BR", "admin1": "Par\u00e1", "lat": -2.44306, "lon": -54.70833, "pop": 189047}, {"name": "Santo Andr\u00e9", "country": "BR", "admin1": "S\u00e3o Paulo", "lat": -23.66389, "lon": -46.53833, "pop": 662373}, {"name": "Santo \u00c2ngelo", "country": "BR", "admin1": "Rio Grande do Sul", "lat": -28.29917, "lon": -54.26306, "pop": 64606}, {"name": "Santo Ant\u00f4nio de Jesus", "country": "BR", "admin1": "Bahia", "lat": -12.96889, "lon": -39.26139, "pop": 73957}, {"name": "Santos", "country": "BR", "admin1": "S\u00e3o Paulo", "lat": -23.96083, "lon": -46.33361, "pop": 411403}, {"name": "S\u00e3o Bento do Sul", "country": "BR", "admin1": "Santa Catarina", "lat": -26.25028, "lon": -49.37861, "pop": 77597}, {"name": "S\u00e3o Bernardo do Campo", "country": "BR", "admin1": "S\u00e3o Paulo", "lat": -23.69389, "lon": -46.565, "pop": 743372}, {"name": "S\u00e3o Borja", "country": "BR", "admin1": "Rio Grande do Sul", "lat": -28.66056, "lon": -56.00444, "pop": 59613}, {"name": "S\u00e3o Caetano do Sul", "country": "BR", "admin1": "S\u00e3o Paulo", "lat": -23.62306, "lon": -46.55111, "pop": 136453}, {"name": "S\u00e3o Carlos", "country": "BR", "admin1": "S\u00e3o Paulo", "lat": -22.0175, "lon": -47.89083, "pop": 205035}, {"name": "S\u00e3o Crist\u00f3v\u00e3o", "country": "BR", "admin1": "Sergipe", "lat": -11.01472, "lon": -37.20639, "pop": 71539}, {"name": "S\u00e3o Gabriel", "country": "BR", "admin1": "Rio Grande do Sul", "lat": -30.33639, "lon": -54.32, "pop": 55434}, {"name": "S\u00e3o Jo\u00e3o da Boa Vista", "country": "BR", "admin1": "S\u00e3o Paulo", "lat": -21.96917, "lon": -46.79806, "pop": 76540}, {"name": "S\u00e3o Jo\u00e3o de Meriti", "country": "BR", "admin1": "Rio de Janeiro", "lat": -22.80389, "lon": -43.37222, "pop": 454849}, {"name": "S\u00e3o Jo\u00e3o del Rei", "country": "BR", "admin1": "Minas Gerais", "lat": -21.13556, "lon": -44.26167, "pop": 78592}, {"name": "S\u00e3o Jos\u00e9", "country": "BR", "admin1": "Santa Catarina", "lat": -28.21171, "lon": -49.1632, "pop": 200000}, {"name": "S\u00e3o Jos\u00e9 do Rio Preto", "country": "BR", "admin1": "S\u00e3o Paulo", "lat": -20.81972, "lon": -49.37944, "pop": 374699}, {"name": "S\u00e3o Jos\u00e9 dos Campos", "country": "BR", "admin1": "S\u00e3o Paulo", "lat": -23.17944, "lon": -45.88694, "pop": 613764}, {"name": "S\u00e3o Jos\u00e9 dos Pinhais", "country": "BR", "admin1": "Paran\u00e1", "lat": -25.5302, "lon": -49.20836, "pop": 124224}, {"name": "S\u00e3o Leopoldo", "country": "BR", "admin1": "Rio Grande do Sul", "lat": -29.76028, "lon": -51.14722, "pop": 209229}, {"name": "S\u00e3o Louren\u00e7o da Mata", "country": "BR", "admin1": "Pernambuco", "lat": -8.00222, "lon": -35.01833, "pop": 88416}, {"name": "S\u00e3o Lu\u00eds", "country": "BR", "admin1": "Maranh\u00e3o", "lat": -2.52972, "lon": -44.30278, "pop": 917237}, {"name": "S\u00e3o Mateus", "country": "BR", "admin1": "Esp\u00edrito Santo", "lat": -18.72011, "lon": -39.85891, "pop": 77117}, {"name": "S\u00e3o Paulo", "country": "BR", "admin1": "S\u00e3o Paulo", "lat": -23.5475, "lon": -46.63611, "pop": 10021295}, {"name": "S\u00e3o Pedro da Aldeia", "country": "BR", "admin1": "Rio de Janeiro", "lat": -22.83917, "lon": -42.10278, "pop": 55014}, {"name": "S\u00e3o Roque", "country": "BR", "admin1": "S\u00e3o Paulo", "lat": -23.52917, "lon": -47.13528, "pop": 50540}, {"name": "S\u00e3o Sebasti\u00e3o", "country": "BR", "admin1": "S\u00e3o Paulo", "lat": -23.76, "lon": -45.40972, "pop": 76367}, {"name": "S\u00e3o Sebasti\u00e3o do Para\u00edso", "country": "BR", "admin1": "Minas Gerais", "lat": -20.91694, "lon": -46.99139, "pop": 68654}, {"name": "S\u00e3o Vicente", "country": "BR", "admin1": "S\u00e3o Paulo", "lat": -23.96306, "lon": -46.39194, "pop": 324457}, {"name": "Sapiranga", "country": "BR", "admin1": "Rio Grande do Sul", "lat": -29.63806, "lon": -51.00694, "pop": 76051}, {"name": "Sapucaia", "country": "BR", "admin1": "Rio Grande do Sul", "lat": -29.83333, "lon": -51.15, "pop": 130937}, {"name": "Saquarema", "country": "BR", "admin1": "Rio de Janeiro", "lat": -22.92, "lon": -42.51028, "pop": 62056}, {"name": "Sarandi", "country": "BR", "admin1": "Paran\u00e1", "lat": -23.44361, "lon": -51.87389, "pop": 84697}, {"name": "Senador Canedo", "country": "BR", "admin1": "Goi\u00e1s", "lat": -16.70806, "lon": -49.09306, "pop": 61800}, {"name": "Serop\u00e9dica", "country": "BR", "admin1": "Rio de Janeiro", "lat": -22.74389, "lon": -43.7075, "pop": 54846}, {"name": "Serra", "country": "BR", "admin1": "Esp\u00edrito Santo", "lat": -20.12861, "lon": -40.30778, "pop": 394153}, {"name": "Serra Talhada", "country": "BR", "admin1": "Pernambuco", "lat": -7.99194, "lon": -38.29833, "pop": 51203}, {"name": "Sert\u00e3ozinho", "country": "BR", "admin1": "S\u00e3o Paulo", "lat": -21.13778, "lon": -47.99028, "pop": 99211}, {"name": "Sete Lagoas", "country": "BR", "admin1": "Minas Gerais", "lat": -19.46583, "lon": -44.24667, "pop": 201334}, {"name": "Sim\u00f5es Filho", "country": "BR", "admin1": "Bahia", "lat": -12.78444, "lon": -38.40389, "pop": 116662}, {"name": "Sinop", "country": "BR", "admin1": "Mato Grosso", "lat": -11.86417, "lon": -55.5025, "pop": 116013}, {"name": "Sobral", "country": "BR", "admin1": "Cear\u00e1", "lat": -3.68611, "lon": -40.34972, "pop": 157996}, {"name": "Sorocaba", "country": "BR", "admin1": "S\u00e3o Paulo", "lat": -23.50167, "lon": -47.45806, "pop": 558862}, {"name": "Sumar\u00e9", "country": "BR", "admin1": "S\u00e3o Paulo", "lat": -22.82194, "lon": -47.26694, "pop": 227977}, {"name": "Suzano", "country": "BR", "admin1": "S\u00e3o Paulo", "lat": -23.5425, "lon": -46.31083, "pop": 283314}, {"name": "Tabo\u00e3o da Serra", "country": "BR", "admin1": "S\u00e3o Paulo", "lat": -23.62611, "lon": -46.79167, "pop": 214523}, {"name": "Taquaritinga", "country": "BR", "admin1": "S\u00e3o Paulo", "lat": -21.40611, "lon": -48.50472, "pop": 50098}, {"name": "Tatu\u00ed", "country": "BR", "admin1": "S\u00e3o Paulo", "lat": -23.35556, "lon": -47.85694, "pop": 93580}, {"name": "Taubat\u00e9", "country": "BR", "admin1": "S\u00e3o Paulo", "lat": -23.02639, "lon": -45.55528, "pop": 251641}, {"name": "Tel\u00eamaco Borba", "country": "BR", "admin1": "Paran\u00e1", "lat": -24.32389, "lon": -50.61556, "pop": 58880}, {"name": "Te\u00f3filo Otoni", "country": "BR", "admin1": "Minas Gerais", "lat": -17.8575, "lon": -41.50528, "pop": 101170}, {"name": "Teresina", "country": "BR", "admin1": "Piau\u00ed", "lat": -5.08917, "lon": -42.80194, "pop": 744512}, {"name": "Teres\u00f3polis", "country": "BR", "admin1": "Rio de Janeiro", "lat": -22.4167, "lon": -42.97822, "pop": 123979}, {"name": "Timon", "country": "BR", "admin1": "Maranh\u00e3o", "lat": -5.09417, "lon": -42.83667, "pop": 124427}, {"name": "Tim\u00f3teo", "country": "BR", "admin1": "Minas Gerais", "lat": -19.58106, "lon": -42.64953, "pop": 91722}, {"name": "Toledo", "country": "BR", "admin1": "Paran\u00e1", "lat": -24.71361, "lon": -53.74306, "pop": 119313}, {"name": "Tr\u00eas Cora\u00e7\u00f5es", "country": "BR", "admin1": "Minas Gerais", "lat": -21.69694, "lon": -45.25333, "pop": 63457}, {"name": "Tr\u00eas Lagoas", "country": "BR", "admin1": "Mato Grosso do Sul", "lat": -20.78765, "lon": -51.70338, "pop": 78712}, {"name": "Tr\u00eas Rios", "country": "BR", "admin1": "Rio de Janeiro", "lat": -22.11667, "lon": -43.20917, "pop": 71944}, {"name": "Trindade", "country": "BR", "admin1": "Goi\u00e1s", "lat": -16.64944, "lon": -49.48889, "pop": 97521}, {"name": "Tubar\u00e3o", "country": "BR", "admin1": "Santa Catarina", "lat": -28.46667, "lon": -49.00694, "pop": 67245}, {"name": "Tucuru\u00ed", "country": "BR", "admin1": "Par\u00e1", "lat": -3.76585, "lon": -49.67923, "pop": 76337}, {"name": "Tup\u00e3", "country": "BR", "admin1": "S\u00e3o Paulo", "lat": -21.93472, "lon": -50.51361, "pop": 62035}, {"name": "Ub\u00e1", "country": "BR", "admin1": "Minas Gerais", "lat": -21.12, "lon": -42.94278, "pop": 97828}, {"name": "Ubatuba", "country": "BR", "admin1": "S\u00e3o Paulo", "lat": -23.43389, "lon": -45.07111, "pop": 79007}, {"name": "Uberaba", "country": "BR", "admin1": "Minas Gerais", "lat": -19.74833, "lon": -47.93194, "pop": 260843}, {"name": "Uberl\u00e2ndia", "country": "BR", "admin1": "Minas Gerais", "lat": -18.91861, "lon": -48.27722, "pop": 563536}, {"name": "Umuarama", "country": "BR", "admin1": "Paran\u00e1", "lat": -23.76639, "lon": -53.325, "pop": 107319}, {"name": "Una\u00ed", "country": "BR", "admin1": "Minas Gerais", "lat": -16.3575, "lon": -46.90611, "pop": 60202}, {"name": "Uruguaiana", "country": "BR", "admin1": "Rio Grande do Sul", "lat": -29.75472, "lon": -57.08833, "pop": 123480}, {"name": "Vacaria", "country": "BR", "admin1": "Rio Grande do Sul", "lat": -28.51222, "lon": -50.93389, "pop": 56765}, {"name": "Valen\u00e7a", "country": "BR", "admin1": "Rio de Janeiro", "lat": -22.24556, "lon": -43.70028, "pop": 61144}, {"name": "Valen\u00e7a", "country": "BR", "admin1": "Bahia", "lat": -13.37028, "lon": -39.07306, "pop": 63231}, {"name": "Valinhos", "country": "BR", "admin1": "S\u00e3o Paulo", "lat": -22.97056, "lon": -46.99583, "pop": 88630}, {"name": "Varginha", "country": "BR", "admin1": "Minas Gerais", "lat": -21.55139, "lon": -45.43028, "pop": 116571}, {"name": "V\u00e1rzea Grande", "country": "BR", "admin1": "Mato Grosso", "lat": -15.64667, "lon": -56.1325, "pop": 249752}, {"name": "V\u00e1rzea Paulista", "country": "BR", "admin1": "S\u00e3o Paulo", "lat": -23.21139, "lon": -46.82833, "pop": 110936}, {"name": "Vespasiano", "country": "BR", "admin1": "Minas Gerais", "lat": -19.69194, "lon": -43.92333, "pop": 94749}, {"name": "Viam\u00e3o", "country": "BR", "admin1": "Rio Grande do Sul", "lat": -30.08111, "lon": -51.02333, "pop": 285269}, {"name": "Viana", "country": "BR", "admin1": "Esp\u00edrito Santo", "lat": -20.39028, "lon": -40.49611, "pop": 55122}, {"name": "Vi\u00e7osa", "country": "BR", "admin1": "Minas Gerais", "lat": -20.75389, "lon": -42.88194, "pop": 68680}, {"name": "Vila Velha", "country": "BR", "admin1": "Esp\u00edrito Santo", "lat": -20.32972, "lon": -40.2925, "pop": 394930}, {"name": "Vilhena", "country": "BR", "admin1": "Rond\u00f4nia", "lat": -12.74056, "lon": -60.14583, "pop": 63231}, {"name": "Vinhedo", "country": "BR", "admin1": "S\u00e3o Paulo", "lat": -23.02972, "lon": -46.97528, "pop": 56492}, {"name": "Vit\u00f3ria", "country": "BR", "admin1": "Esp\u00edrito Santo", "lat": -20.31944, "lon": -40.33778, "pop": 312656}, {"name": "Vit\u00f3ria da Conquista", "country": "BR", "admin1": "Bahia", "lat": -14.86611, "lon": -40.83944, "pop": 253137}, {"name": "Vit\u00f3ria de Santo Ant\u00e3o", "country": "BR", "admin1": "Pernambuco", "lat": -8.11806, "lon": -35.29139, "pop": 107383}, {"name": "Volta Redonda", "country": "BR", "admin1": "Rio de Janeiro", "lat": -22.52306, "lon": -44.10417, "pop": 249580}, {"name": "Votorantim", "country": "BR", "admin1": "S\u00e3o Paulo", "lat": -23.54667, "lon": -47.43778, "pop": 99390}, {"name": "Votuporanga", "country": "BR", "admin1": "S\u00e3o Paulo", "lat": -20.42278, "lon": -49.97278, "pop": 69863}, {"name": "Nassau", "country": "BS", "admin1": "New Providence District", "lat": 25.05823, "lon": -77.34306, "pop": 227940}, {"name": "Thimphu", "country": "BT", "admin1": "Thimphu Dzongkhag", "lat": 27.46609, "lon": 89.64191, "pop": 98676}, {"name": "Francistown", "country": "BW", "admin1": "City of Francistown", "lat": -21.17, "lon": 27.50778, "pop": 89979}, {"name": "Gaborone", "country": "BW", "admin1": "Gaborone", "lat": -24.65451, "lon": 25.90859, "pop": 208411}, {"name": "Molepolole", "country": "BW", "admin1": "Kweneng District", "lat": -24.40659, "lon": 25.49508, "pop": 63248}, {"name": "Selebi-Phikwe", "country": "BW", "admin1": "Selibe Phikwe", "lat": -21.97895, "lon": 27.84296, "pop": 53727}, {"name": "Babruysk", "country": "BY", "admin1": "Mogilyov Oblast", "lat": 53.1384, "lon": 29.2214, "pop": 220517}, {"name": "Baranovichi", "country": "BY", "admin1": "Brest Oblast", "lat": 53.1327, "lon": 26.0139, "pop": 168772}, {"name": "Barysaw", "country": "BY", "admin1": "Minsk Oblast", "lat": 54.2279, "lon": 28.505, "pop": 143919}, {"name": "Brest", "country": "BY", "admin1": "Brest Oblast", "lat": 52.09755, "lon": 23.68775, "pop": 300715}, {"name": "Homyel'", "country": "BY", "admin1": "Homyel\u2019 Voblasc\u2019", "lat": 52.4345, "lon": 30.9754, "pop": 480951}, {"name": "Horad Zhodzina", "country": "BY", "admin1": "Minsk Oblast", "lat": 54.0985, "lon": 28.3331, "pop": 61007}, {"name": "Hrodna", "country": "BY", "admin1": "Grodno Oblast", "lat": 53.6884, "lon": 23.8258, "pop": 317365}, {"name": "Kobryn", "country": "BY", "admin1": "Brest Oblast", "lat": 52.2138, "lon": 24.3564, "pop": 50691}, {"name": "Lida", "country": "BY", "admin1": "Grodno Oblast", "lat": 53.88333, "lon": 25.29972, "pop": 98036}, {"name": "Mahilyow", "country": "BY", "admin1": "Mogilyov Oblast", "lat": 53.9168, "lon": 30.3449, "pop": 369200}, {"name": "Maladzyechna", "country": "BY", "admin1": "Minsk Oblast", "lat": 54.3167, "lon": 26.854, "pop": 101300}, {"name": "Mazyr", "country": "BY", "admin1": "Homyel\u2019 Voblasc\u2019", "lat": 52.0495, "lon": 29.2456, "pop": 112137}, {"name": "Minsk", "country": "BY", "admin1": "Horad Minsk", "lat": 53.9, "lon": 27.56667, "pop": 1742124}, {"name": "Navapolatsk", "country": "BY", "admin1": "Vitebsk Oblast", "lat": 55.5318, "lon": 28.5987, "pop": 100885}, {"name": "Orsha", "country": "BY", "admin1": "Vitebsk Oblast", "lat": 54.5081, "lon": 30.4172, "pop": 125347}, {"name": "Pinsk", "country": "BY", "admin1": "Brest Oblast", "lat": 52.1229, "lon": 26.0951, "pop": 130777}, {"name": "Polatsk", "country": "BY", "admin1": "Vitebsk Oblast", "lat": 55.4879, "lon": 28.7856, "pop": 82258}, {"name": "Rechytsa", "country": "BY", "admin1": "Homyel\u2019 Voblasc\u2019", "lat": 52.3617, "lon": 30.3916, "pop": 65400}, {"name": "Salihorsk", "country": "BY", "admin1": "Minsk Oblast", "lat": 52.7876, "lon": 27.5415, "pop": 101614}, {"name": "Slonim", "country": "BY", "admin1": "Grodno Oblast", "lat": 53.0869, "lon": 25.3163, "pop": 51434}, {"name": "Slutsk", "country": "BY", "admin1": "Minsk Oblast", "lat": 53.0274, "lon": 27.5597, "pop": 62228}, {"name": "Svyetlahorsk", "country": "BY", "admin1": "Homyel\u2019 Voblasc\u2019", "lat": 52.6329, "lon": 29.7389, "pop": 71250}, {"name": "Vitebsk", "country": "BY", "admin1": "Vitebsk Oblast", "lat": 55.1904, "lon": 30.2049, "pop": 342700}, {"name": "Zhlobin", "country": "BY", "admin1": "Homyel\u2019 Voblasc\u2019", "lat": 52.8926, "lon": 30.024, "pop": 73089}, {"name": "Belize City", "country": "BZ", "admin1": "Belize District", "lat": 17.49952, "lon": -88.19756, "pop": 61461}, {"name": "Abbotsford", "country": "CA", "admin1": "British Columbia", "lat": 49.05798, "lon": -122.25257, "pop": 151683}, {"name": "Ajax", "country": "CA", "admin1": "Ontario", "lat": 43.85012, "lon": -79.03288, "pop": 90167}, {"name": "Aurora", "country": "CA", "admin1": "Ontario", "lat": 44.00011, "lon": -79.46632, "pop": 55445}, {"name": "Barrie", "country": "CA", "admin1": "Ontario", "lat": 44.40011, "lon": -79.66634, "pop": 182041}, {"name": "Brampton", "country": "CA", "admin1": "Ontario", "lat": 43.68341, "lon": -79.76633, "pop": 433806}, {"name": "Brantford", "country": "CA", "admin1": "Ontario", "lat": 43.1334, "lon": -80.26636, "pop": 87759}, {"name": "Brossard", "country": "CA", "admin1": "Qu\u00e9bec", "lat": 45.45008, "lon": -73.46583, "pop": 69575}, {"name": "Burlington", "country": "CA", "admin1": "Ontario", "lat": 43.38621, "lon": -79.83713, "pop": 164415}, {"name": "Burnaby", "country": "CA", "admin1": "British Columbia", "lat": 49.26636, "lon": -122.95263, "pop": 202799}, {"name": "Calgary", "country": "CA", "admin1": "Alberta", "lat": 51.05011, "lon": -114.08529, "pop": 1019942}, {"name": "Cambridge", "country": "CA", "admin1": "Ontario", "lat": 43.3601, "lon": -80.31269, "pop": 120372}, {"name": "Chilliwack", "country": "CA", "admin1": "British Columbia", "lat": 49.16638, "lon": -121.95257, "pop": 77000}, {"name": "Coquitlam", "country": "CA", "admin1": "British Columbia", "lat": 49.2846, "lon": -122.78217, "pop": 140000}, {"name": "Dartmouth", "country": "CA", "admin1": "Nova Scotia", "lat": 44.67134, "lon": -63.57719, "pop": 101343}, {"name": "Delta", "country": "CA", "admin1": "British Columbia", "lat": 49.14399, "lon": -122.9068, "pop": 101668}, {"name": "Drummondville", "country": "CA", "admin1": "Qu\u00e9bec", "lat": 45.88336, "lon": -72.48241, "pop": 59489}, {"name": "East York", "country": "CA", "admin1": "Ontario", "lat": 43.69053, "lon": -79.32794, "pop": 115365}, {"name": "Edmonton", "country": "CA", "admin1": "Alberta", "lat": 53.55014, "lon": -113.46871, "pop": 712391}, {"name": "Etobicoke", "country": "CA", "admin1": "Ontario", "lat": 43.65421, "lon": -79.56711, "pop": 347948}, {"name": "Fort McMurray", "country": "CA", "admin1": "Alberta", "lat": 56.72676, "lon": -111.38103, "pop": 76000}, {"name": "Fredericton", "country": "CA", "admin1": "New Brunswick/Nouveau-Brunswick", "lat": 45.94541, "lon": -66.66558, "pop": 52337}, {"name": "Gatineau", "country": "CA", "admin1": "Qu\u00e9bec", "lat": 45.47723, "lon": -75.70164, "pop": 242124}, {"name": "Granby", "country": "CA", "admin1": "Qu\u00e9bec", "lat": 45.40008, "lon": -72.73243, "pop": 53979}, {"name": "Greater Sudbury", "country": "CA", "admin1": "Ontario", "lat": 46.49, "lon": -80.99001, "pop": 157857}, {"name": "Guelph", "country": "CA", "admin1": "Ontario", "lat": 43.54594, "lon": -80.25599, "pop": 115760}, {"name": "Halifax", "country": "CA", "admin1": "Nova Scotia", "lat": 44.6464, "lon": -63.57291, "pop": 359111}, {"name": "Hamilton", "country": "CA", "admin1": "Ontario", "lat": 43.25011, "lon": -79.84963, "pop": 519949}, {"name": "Kamloops", "country": "CA", "admin1": "British Columbia", "lat": 50.66648, "lon": -120.3192, "pop": 68714}, {"name": "Kanata", "country": "CA", "admin1": "Ontario", "lat": 45.3001, "lon": -75.91606, "pop": 90000}, {"name": "Kelowna", "country": "CA", "admin1": "British Columbia", "lat": 49.88307, "lon": -119.48568, "pop": 125109}, {"name": "Kingston", "country": "CA", "admin1": "Ontario", "lat": 44.22976, "lon": -76.48098, "pop": 114195}, {"name": "Kitchener", "country": "CA", "admin1": "Ontario", "lat": 43.42537, "lon": -80.5112, "pop": 233700}, {"name": "Ladner", "country": "CA", "admin1": "British Columbia", "lat": 49.08938, "lon": -123.08241, "pop": 200000}, {"name": "Laval", "country": "CA", "admin1": "Qu\u00e9bec", "lat": 45.56995, "lon": -73.692, "pop": 376845}, {"name": "Lethbridge", "country": "CA", "admin1": "Alberta", "lat": 49.69999, "lon": -112.81856, "pop": 70617}, {"name": "L\u00e9vis", "country": "CA", "admin1": "Qu\u00e9bec", "lat": 46.80326, "lon": -71.17793, "pop": 126396}, {"name": "London", "country": "CA", "admin1": "Ontario", "lat": 42.98339, "lon": -81.23304, "pop": 346765}, {"name": "Longueuil", "country": "CA", "admin1": "Qu\u00e9bec", "lat": 45.53121, "lon": -73.51806, "pop": 229330}, {"name": "Maple Ridge", "country": "CA", "admin1": "British Columbia", "lat": 49.21939, "lon": -122.60193, "pop": 70000},